SERVICE_REQUEST_ID	STATUS	SERVICE_NAME	SERVICE_CODE	DESCRIPTION	AGENCY_RESPONSIBLE	REQUESTED_DATETIME	UPDATED_DATETIME	EXPECTED_DATETIME	ADDRESS	ZIPCODE	LATITUDE	LONGITUDE	REQUESTED_DATE	UPDATED_DATE	LAST_TABLE_UPDATE
SR21000495	OPEN	"""Building, residential"""	"""BLD-RES"""	"""Request entered through the Web. Refer to Intake Questions for further description."""	Cinc Building Dept	2021-01-04	2021-01-04	2022-01-04	"""3024 HACKBERRY ST, CINC - GJ1830934516"""	45206	39.1324854022541	-84.4743196237978	01/04/2021 12:00:00 AM	01/04/2021 12:00:00 AM	01/04/2021 12:00:00 AM
SR21001191	NEW	"""Building, residential"""	"""BLD-RES"""	"""Request entered through the Web. Refer to Intake Questions for further description."""	Cinc Building Dept	2021-01-06	2021-01-06	2022-01-06	"""2929 FAIRFIELD AV, CINC - GJ1845734356"""	45206	39.1310060582993	-84.4726525520056	01/06/2021 12:00:00 AM	01/06/2021 12:00:00 AM	01/06/2021 12:00:00 AM
SR21001193	NEW	"""Building, residential"""	"""BLD-RES"""	"""Request entered through the Web. Refer to Intake Questions for further description."""	Cinc Building Dept	2021-01-06	2021-01-06	2022-01-06	"""2933 FAIRFIELD AV, CINC - GJ1845734374"""	45206	39.1311653283204	-84.4726534939901	01/06/2021 12:00:00 AM	01/06/2021 12:00:00 AM	01/06/2021 12:00:00 AM
SR21001047	NEW	"""Building, residential"""	"""BLD-RES"""	"""Yard gate lock preventing egress in an emergency situation."""	Cinc Building Dept	2021-01-06	2021-01-06	2022-01-06	"""2926 VAUGHN ST - GJ1553034579 """	45219	39.1337384698599	-84.5064261396233	01/06/2021 12:00:00 AM	01/06/2021 12:00:00 AM	01/06/2021 12:00:00 AM
SR21000753	OPEN	"""Building, residential"""	"""BLD-RES"""	"""Bedroom ceiling collapsed. Foul odors from the ceiling area that had collapsed and mold issues in the section. """	Cinc Building Dept	2021-01-05	2021-01-06	2022-01-05	"""3627 MONTGOMERY RD - GJ1874035982 """	45207	39.1455709030084	-84.4688678240793	01/05/2021 12:00:00 AM	01/06/2021 12:00:00 AM	01/06/2021 12:00:00 AM
SR21000322	OPEN	"""Building, residential"""	"""BLD-RES"""	"""Request entered through the Web. Refer to Intake Questions for further description."""	Cinc Building Dept	2021-01-04	2021-01-06	2022-01-04	"""2219 STRATFORD AV, CINC - GJ1408833419"""	45219	39.1236599544266	-84.5234571986158	01/04/2021 12:00:00 AM	01/06/2021 12:00:00 AM	01/06/2021 12:00:00 AM
SR21000064	OPEN	"""Building, residential"""	"""BLD-RES"""	"""Request entered through the Web. Refer to Intake Questions for further description."""	Cinc Building Dept	2021-01-02	2021-01-06	2022-01-02	"""1751 GILSEY AV, CINC - GJ0893533050"""	45205	39.1215812343673	-84.5831263608594	01/02/2021 12:00:00 AM	01/06/2021 12:00:00 AM	01/06/2021 12:00:00 AM
SR21001156	CLOS	"""Building, residential"""	"""BLD-RES"""	"""Request entered through the Web. Refer to Intake Questions for further description."""	Cinc Building Dept	2021-01-06	2021-01-07	2022-01-06	"""657 W MCMICKEN AV, CINC - GJ1330033349"""	45214	39.1232230134051	-84.5325763582437	01/06/2021 12:00:00 AM	01/07/2021 12:00:00 AM	01/07/2021 12:00:00 AM
SR21000885	CLOS	"""Building, residential"""	"""BLD-RES"""	"""No hot water for building. no electric in common areas"""	Cinc Building Dept	2021-01-05	2021-01-07	2022-01-05	"""2749 HARRISON AV - GJ0810535266 """	45211	39.1417274603324	-84.5920428817612	01/05/2021 12:00:00 AM	01/07/2021 12:00:00 AM	01/07/2021 12:00:00 AM
SR21000704	OPEN	"""Building, residential"""	"""BLD-RES"""	"""No heat for 3 years"""	Cinc Building Dept	2021-01-05	2021-01-07	2022-01-05	"""3529 WERK RD - GJ0568035118 """	45238	39.1409755000826	-84.6201320319198	01/05/2021 12:00:00 AM	01/07/2021 12:00:00 AM	01/07/2021 12:00:00 AM
SR21001359	OPEN	"""Building, residential"""	"""BLD-RES"""	"""Request entered through the Web. Refer to Intake Questions for further description."""	Cinc Building Dept	2021-01-06	2021-01-08	2022-01-06	"""657 W MCMICKEN AV, CINC - GJ1330033349"""	45214	39.1232230134051	-84.5325763582437	01/06/2021 12:00:00 AM	01/08/2021 12:00:00 AM	01/08/2021 12:00:00 AM
SR21001014	CLOS	"""Building, residential"""	"""BLD-RES"""	"""Request entered through the Web. Refer to Intake Questions for further description."""	Cinc Building Dept	2021-01-05	2021-01-08	2022-01-05	"""6425 HAMILTON AV, CINC - GJ1166842771"""	45224	39.2084367795541	-84.5484917798816	01/05/2021 12:00:00 AM	01/08/2021 12:00:00 AM	01/08/2021 12:00:00 AM
SR21002343	NEW	"""Building, residential"""	"""BLD-RES"""	"""Breaker box caught on fire. Outlet burned stove removed."""	Cinc Building Dept	2021-01-11	2021-01-11	2022-01-11	"""259 W MCMICKEN AV - GJ1410432980 """	45214	39.1196921822567	-84.5234170765665	01/11/2021 12:00:00 AM	01/11/2021 12:00:00 AM	01/11/2021 12:00:00 AM
SR21001450	CLOS	"""Building, residential"""	"""BLD-RES"""	"""Request entered through the Web. Refer to Intake Questions for further description."""	Cinc Building Dept	2021-01-07	2021-01-11	2022-01-07	"""1631 GILSEY AV, CINC - GJ0912132699"""	45205	39.1183770356975	-84.5810923894129	01/07/2021 12:00:00 AM	01/11/2021 12:00:00 AM	01/11/2021 12:00:00 AM
SR21001001	OPEN	"""Building, residential"""	"""BLD-RES"""	"""Request entered through the Web. Refer to Intake Questions for further description."""	Cinc Building Dept	2021-01-05	2021-01-11	2022-01-05	"""4334 BROWNWAY AV, CINC - GJ2201837166"""	45209	39.1554010702263	-84.4305790634641	01/05/2021 12:00:00 AM	01/11/2021 12:00:00 AM	01/11/2021 12:00:00 AM
SR21000452	OPEN	"""Building, residential"""	"""BLD-RES"""	"""Ceiling & walls have water damage. The basement has mold/mildew smell. Stairs to basement has no railing and not maintained, unable to keep anything in basement due to mold issues in the basement. """	Cinc Building Dept	2021-01-04	2021-01-11	2022-01-04	"""1720 W NORTH BEND RD - GJ1146442317 """	45224	39.2043990409218	-84.5510143607587	01/04/2021 12:00:00 AM	01/11/2021 12:00:00 AM	01/11/2021 12:00:00 AM
SR21000194	OPEN	"""Building, residential"""	"""BLD-RES"""	"""Request entered through the Web. Refer to Intake Questions for further description."""	Cinc Building Dept	2021-01-03	2021-01-11	2022-01-03	"""1234 MYRTLE AV, CINC - GJ1762934182"""	45206	39.1296416360506	-84.4822826861561	01/03/2021 12:00:00 AM	01/11/2021 12:00:00 AM	01/11/2021 12:00:00 AM
SR21000195	OPEN	"""Building, residential"""	"""BLD-RES"""	"""Request entered through the Web. Refer to Intake Questions for further description."""	Cinc Building Dept	2021-01-03	2021-01-11	2022-01-03	"""2809 ASHLAND AV, CINC - GJ1762534209"""	45206	39.1298882636805	-84.4823143210303	01/03/2021 12:00:00 AM	01/11/2021 12:00:00 AM	01/11/2021 12:00:00 AM
SR21001491	OPEN	"""Building, residential"""	"""BLD-RES"""	"""Request entered through the Web. Refer to Intake Questions for further description."""	Cinc Building Dept	2021-01-07	2021-01-12	2022-01-07	"""3044 WOODBURN AV, CINC - GJ1814634608"""	45206	39.1333519078918	-84.4761705394622	01/07/2021 12:00:00 AM	01/12/2021 12:00:00 AM	01/12/2021 12:00:00 AM
SR21001708	OPEN	"""Building, residential"""	"""BLD-RES"""	"""Request entered through the Web. Refer to Intake Questions for further description."""	Cinc Building Dept	2021-01-07	2021-01-12	2022-01-07	"""5069 SIDNEY RD, CINC - GJ0691533178"""	45238	39.1232169547696	-84.6064382034598	01/07/2021 12:00:00 AM	01/12/2021 12:00:00 AM	01/12/2021 12:00:00 AM
SR21001698	OPEN	"""Building, residential"""	"""BLD-RES"""	"""Request entered through the Web. Refer to Intake Questions for further description."""	Cinc Building Dept	2021-01-07	2021-01-12	2022-01-07	"""35 PARKWOOD PL, CINC - GJ1545937358"""	45217	39.1587753180395	-84.5063506579933	01/07/2021 12:00:00 AM	01/12/2021 12:00:00 AM	01/12/2021 12:00:00 AM
SR21001309	CLOS	"""Building, residential"""	"""BLD-RES"""	"""Doing work without permits. Building decks."""	Cinc Building Dept	2021-01-06	2021-01-12	2022-01-06	"""3166 PENROSE PL - GJ0688935889 """	45211	39.1476254493733	-84.6059174715139	01/06/2021 12:00:00 AM	01/12/2021 12:00:00 AM	01/12/2021 12:00:00 AM
SR21001264	OPEN	"""Building, residential"""	"""BLD-RES"""	"""Kitchen sink leaking.  gap at bottom of front door. Front door lock not secure"""	Cinc Building Dept	2021-01-06	2021-01-12	2022-01-06	"""3700 READING RD - GJ1722636488 """	45229	39.1505013327734	-84.4862110553388	01/06/2021 12:00:00 AM	01/12/2021 12:00:00 AM	01/12/2021 12:00:00 AM
SR21001100	OPEN	"""Building, residential"""	"""BLD-RES"""	"""Fence too close to neighbor property. 6 ft fence in neighbor front yard"""	Cinc Building Dept	2021-01-06	2021-01-12	2022-01-06	"""3540 READING RD - GJ1692335945 """	45229	39.1456927166424	-84.4898842061521	01/06/2021 12:00:00 AM	01/12/2021 12:00:00 AM	01/12/2021 12:00:00 AM
SR21001304	CLOS	"""Building, residential"""	"""BLD-RES"""	"""Basement apartment. Circuit breaker constantly trips. No GCFI's near the sinks. Circuit breaker for the unit is not located in the unit but in the common area. Outlets are not properly wired. The entire unit is on a single 20 amp breaker. """	Cinc Building Dept	2021-01-06	2021-01-12	2022-01-06	"""249 SENATOR PL - GJ1454135725 """	45220	39.1442954723886	-84.5174983017165	01/06/2021 12:00:00 AM	01/12/2021 12:00:00 AM	01/12/2021 12:00:00 AM
SR21000731	CLOS	"""Building, residential"""	"""BLD-RES"""	"""Request entered through the Web. Refer to Intake Questions for further description."""	Cinc Building Dept	2021-01-05	2021-01-12	2022-01-05	"""1530 ST LEGER PL, CINC - GJ1796735175"""	45207	39.1384965908583	-84.4780536970849	01/05/2021 12:00:00 AM	01/12/2021 12:00:00 AM	01/12/2021 12:00:00 AM
SR21000735	OPEN	"""Building, residential"""	"""BLD-RES"""	"""Entire building. Common hallway railing iis loose. Holes in the walls throughout the building. Unsanitary conditions in the basement. Mice infestation. """	Cinc Building Dept	2021-01-05	2021-01-12	2022-01-05	"""580 WILKINSON ST - GJ1624433470 """	45206	39.1235762371113	-84.4985240841829	01/05/2021 12:00:00 AM	01/12/2021 12:00:00 AM	01/12/2021 12:00:00 AM
SR21000508	OPEN	"""Building, residential"""	"""BLD-RES"""	"""No heat or hot water for whole building"""	Cinc Building Dept	2021-01-04	2021-01-12	2022-01-04	"""2351 MADISON RD - GJ1985634970 """	45208	39.1361772461568	-84.4562907424785	01/04/2021 12:00:00 AM	01/12/2021 12:00:00 AM	01/12/2021 12:00:00 AM
SR21003129	NEW	"""Building, residential"""	"""BLD-RES"""	"""Kitchen ceiling leaking. Front screen door sticking. Black mold in bathroom."""	Cinc Building Dept	2021-01-13	2021-01-13	2022-01-13	"""3051 WALTER AV - GJ1730034867 """	45206	39.135891295773	-84.4858688720579	01/13/2021 12:00:00 AM	01/13/2021 12:00:00 AM	01/13/2021 12:00:00 AM
SR21003139	NEW	"""Building, fire escape insp"""	"""BLDFRESC"""	"""Inspect to update conditions & reissue BF16004778 due to ownership change."""	Cinc Building Dept	2021-01-13	2021-01-13	2022-01-13	"""930 SUMMIT AV - GJ1110131583 """	45204	39.1078545726081	-84.5585486912018	01/13/2021 12:00:00 AM	01/13/2021 12:00:00 AM	01/13/2021 12:00:00 AM
SR21003213	OPEN	"""Building, residential"""	"""BLD-RES"""	"""I live a couple of blocks from a four family apartment at the northwest corner of Oakwood and Belmont which has a metal gutter detached from the building and hanging over the electrical service. It has been like this for several weeks. The problem is easily viewable from Belmont Ave. This seems like a very dangerous situation."""	Cinc Building Dept	2021-01-13	2021-01-13	2022-01-13	"""5903 OAKWOOD AV - GJ1109541690 """	45224	39.1988410732121	-84.5554793683962	01/13/2021 12:00:00 AM	01/13/2021 12:00:00 AM	01/13/2021 12:00:00 AM
SR21002266	CLOS	"""Building, residential"""	"""BLD-RES"""	"""Request entered through the Web. Refer to Intake Questions for further description."""	Cinc Building Dept	2021-01-11	2021-01-13	2022-01-11	"""111 GARFIELD PL, CINC - GJ1482831243"""	45202	39.1038860587557	-84.5155885625711	01/11/2021 12:00:00 AM	01/13/2021 12:00:00 AM	01/13/2021 12:00:00 AM
SR21002267	CLOS	"""Building, residential"""	"""BLD-RES"""	"""Request entered through the Web. Refer to Intake Questions for further description."""	Cinc Building Dept	2021-01-11	2021-01-13	2022-01-11	"""111 GARFIELD PL, CINC - GJ1482831243"""	45202	39.1038860587557	-84.5155885625711	01/11/2021 12:00:00 AM	01/13/2021 12:00:00 AM	01/13/2021 12:00:00 AM
SR21002531	CLOS	"""Building, residential"""	"""BLD-RES"""	"""Doing work without permits. A retainer wall is  being built and is being filled, caller is concern that they are using their foundation for the retainer wall. And  creating a parking lot in the back of property along Peete St side. Caller is concern that there will be drainage issues and problems with caller's foundation. """	Cinc Building Dept	2021-01-11	2021-01-13	2022-01-11	"""214 E CLIFTON AV - GJ1500432486 """	45202	39.1150261647048	-84.5131650968626	01/11/2021 12:00:00 AM	01/13/2021 12:00:00 AM	01/13/2021 12:00:00 AM
SR21001846	OPEN	"""Building, residential"""	"""BLD-RES"""	"""Inspect to reissue CC20190108 to update conditions. """	Cinc Building Dept	2021-01-08	2021-01-13	2022-01-08	"""1769 TOWNSEND ST - GJ1191636998 """	45223	39.1564009350449	-84.5474479710334	01/08/2021 12:00:00 AM	01/13/2021 12:00:00 AM	01/13/2021 12:00:00 AM
SR21001434	OPEN	"""Building, residential"""	"""BLD-RES"""	"""No heat. Upstairs shower doesn't drain properly. Basement floods every time it rains. Basement walls have cracks. """	Cinc Building Dept	2021-01-07	2021-01-13	2022-01-07	"""968 DELHI AV - GJ0961730122 """	45204	39.0950525593873	-84.5761590516406	01/07/2021 12:00:00 AM	01/13/2021 12:00:00 AM	01/13/2021 12:00:00 AM
SR21001207	OPEN	"""Building, residential"""	"""BLD-RES"""	"""Request entered through the Web. Refer to Intake Questions for further description."""	Cinc Building Dept	2021-01-06	2021-01-13	2022-01-06	"""3522 ROSECLIFF DR, CINC - GJ1024230307"""	45205	39.0965698217045	-84.5688729326267	01/06/2021 12:00:00 AM	01/13/2021 12:00:00 AM	01/13/2021 12:00:00 AM
SR21000472	OPEN	"""Building, residential"""	"""BLD-RES"""	"""Holes in ceilings throughout the unit. Outlets have no covers. Mold issues in the bathroom. Baseboards are coming off. Windows don't work properly. No screens in the windows. Blinds are pulling away from the wall. Stove smokes everytime it is used. Roach & ant infestation. """	Cinc Building Dept	2021-01-04	2021-01-13	2022-01-04	"""589 W LIBERTY ST - GJ1380732252 """	45214	39.1132183067219	-84.5270733682016	01/04/2021 12:00:00 AM	01/13/2021 12:00:00 AM	01/13/2021 12:00:00 AM
SR21003390	NEW	"""Building, residential"""	"""BLD-RES"""	"""Portion of the building is being used as an Air B-N-B.  NO HEAT & No hot water in the unit she stayed in. The common garbage room on the 3rd floor was over flowed with garbage and the garbage shut in the room was completely filled. There are wires exposed in the garbage room and water leaking in the room.Caller was a resident in the Air B-N-B section of the apartment building. Caller is no longer at the building. She stated that she did notify management/receptionist about the issues with unit and garbage room. """	Cinc Building Dept	2021-01-14	2021-01-14	2022-01-14	"""2515 BURNET AV - GJ1592433852 """	45219	39.1270929845455	-84.5021006021301	01/14/2021 12:00:00 AM	01/14/2021 12:00:00 AM	01/14/2021 12:00:00 AM
SR21003480	NEW	"""Building, fire escape insp"""	"""BLDFRESC"""	"""Reissue to update conditions"""	Cinc Building Dept	2021-01-14	2021-01-14	2022-01-14	"""3710 READING RD - GJ1721936506 """	45229	39.1506675691426	-84.4862862943483	01/14/2021 12:00:00 AM	01/14/2021 12:00:00 AM	01/14/2021 12:00:00 AM
SR21003468	NEW	"""Sign Shop,Internal New Request"""	"""SGNSHPNI"""	"""SR for pup garbage truck decals. Contact Doug Pierani for further details"""	Public Services	2021-01-14	2021-01-14	2022-01-14	"""3300 COLERAIN AV - GJ1278335589 """	45225	39.1435054955578	-84.5378569044142	01/14/2021 12:00:00 AM	01/14/2021 12:00:00 AM	01/14/2021 12:00:00 AM
SR21003472	NEW	"""Building, residential"""	"""BLD-RES"""	"""Reissue of exisitng orders to new owner,"""	Cinc Building Dept	2021-01-14	2021-01-14	2022-01-14	"""3606 BARBERRY AV - GJ1993435863 """	45207	39.1441999885885	-84.4551032817118	01/14/2021 12:00:00 AM	01/14/2021 12:00:00 AM	01/14/2021 12:00:00 AM
SR21003359	CLOS	"""Building, residential"""	"""BLD-RES"""	"""Request entered through the Web. Refer to Intake Questions for further description."""	Cinc Building Dept	2021-01-14	2021-01-14	2022-01-14	"""329 STANLEY AV, CINC - """	45226	39.1150715498093	-84.4370196804612	01/14/2021 12:00:00 AM	01/14/2021 12:00:00 AM	01/14/2021 12:00:00 AM
SR21002983	OPEN	"""Building, residential"""	"""BLD-RES"""	"""Issue existing keep vacant as repair orders."""	Cinc Building Dept	2021-01-13	2021-01-14	2022-01-13	"""4726 SIMPSON AV - GJ2557037455 """	45227	39.1570868972605	-84.3894187107185	01/13/2021 12:00:00 AM	01/14/2021 12:00:00 AM	01/14/2021 12:00:00 AM
SR21002232	CLOS	"""Building, residential"""	"""BLD-RES"""	"""Extremely tall grass & weeds. Was told by the Fire Department that it is a fire hazard."""	Cinc Building Dept	2021-01-11	2021-01-14	2022-01-11	"""6322 CAMBRIDGE AV - GJ2629529442 """	45230	39.0847638081638	-84.3837063256086	01/11/2021 12:00:00 AM	01/14/2021 12:00:00 AM	01/14/2021 12:00:00 AM
SR21002534	OPEN	"""Building, residential"""	"""BLD-RES"""	"""Transfer: 01/12/2021 3:08 PM/PCLEMONSWooded area located behind home (which is city property) has been completely cleared - this potentially will cause further erosion of hill side above Columbia Parkway - Request entered through the Web. Refer to Intake Questions for further description."""	Cinc Building Dept	2021-01-11	2021-01-14	2022-01-12	"""5087 BOUCHAINE WY, CINC - GJ2371134188"""	45208	39.1281641595724	-84.4119795626757	01/11/2021 12:00:00 AM	01/14/2021 12:00:00 AM	01/14/2021 12:00:00 AM
SR21000781	CLOS	"""Building, residential"""	"""BLD-RES"""	"""Parking issues causing problems for the caller's property. The shrubs in the back of the property needs to cut back so that the residents can park in the back, F150 truck & Ford Sierra leaks oil. The residents drive onto caller's property causing damage to her property. They are using the caller's property as entrance & exit causing damage. There is also old plywood, buckets in the back of the property. """	Cinc Building Dept	2021-01-05	2021-01-14	2022-01-05	"""3963 VINE ST - GJ1557137443 """	45217	39.1595146844495	-84.5050453981469	01/05/2021 12:00:00 AM	01/14/2021 12:00:00 AM	01/14/2021 12:00:00 AM
SR21003731	NEW	"""Building, residential"""	"""BLD-RES"""	"""Hedges overgrown onto the public right or way. """	Cinc Building Dept	2021-01-15	2021-01-15	2022-01-15	"""1607 ROSECLIFF AV - GJ1917141457 """	45237	39.1947423660323	-84.4621178865371	01/15/2021 12:00:00 AM	01/15/2021 12:00:00 AM	01/15/2021 12:00:00 AM
SR21003627	OPEN	"""Building, residential"""	"""BLD-RES"""	"""Request entered through the Web. Refer to Intake Questions for further description."""	Cinc Building Dept	2021-01-14	2021-01-15	2022-01-14	"""650 STRAIGHT ST, CINC - """	45214	39.1302870374992	-84.5283200052095	01/14/2021 12:00:00 AM	01/15/2021 12:00:00 AM	01/15/2021 12:00:00 AM
SR21003335	OPEN	"""Building, residential"""	"""BLD-RES"""	"""Request entered through the Web. Refer to Intake Questions for further description."""	Cinc Building Dept	2021-01-14	2021-01-15	2022-01-14	"""2240 WESTWOOD NORTHERN BLVD, CINC - """	45225	39.1463576285875	-84.5667900048969	01/14/2021 12:00:00 AM	01/15/2021 12:00:00 AM	01/15/2021 12:00:00 AM
SR21003224	CLOS	"""Tree, trim required public"""	"""TRTRIMUF"""	""" """	Park Department	2021-01-13	2021-01-15	2022-01-13	"""3273 GAFF AV - GJ1750535287 """	45206	39.1396167998975	-84.4833750320819	01/13/2021 12:00:00 AM	01/15/2021 12:00:00 AM	01/15/2021 12:00:00 AM
SR21003191	OPEN	"""Building, residential"""	"""BLD-RES"""	"""Basement apartment. No Heat since 11-2020. """	Cinc Building Dept	2021-01-13	2021-01-15	2022-01-13	"""1914 WESTMONT LN - GJ0983433264 """	45205	39.1232929368283	-84.5726701420343	01/13/2021 12:00:00 AM	01/15/2021 12:00:00 AM	01/15/2021 12:00:00 AM
SR21002839	CLOS	"""Building, residential"""	"""BLD-RES"""	"""Elderly tenant stated management not removing rubbish from building and trash chute is overflowing into the hallway. Also stated broken water pipe creating issues with her hot water."""	Cinc Building Dept	2021-01-12	2021-01-15	2022-01-12	"""400 W 9TH ST - GJ1437031306 """	45203	39.1045576093702	-84.5208668381101	01/12/2021 12:00:00 AM	01/15/2021 12:00:00 AM	01/15/2021 12:00:00 AM
SR21002358	OPEN	"""Building, residential"""	"""BLD-RES"""	"""Request entered through the Web. Refer to Intake Questions for further description."""	Cinc Building Dept	2021-01-11	2021-01-15	2022-01-11	"""1119 E MCMILLAN ST, CINC - GJ1737833711"""	45206	39.1254672962081	-84.4853276963565	01/11/2021 12:00:00 AM	01/15/2021 12:00:00 AM	01/15/2021 12:00:00 AM
SR21001838	OPEN	"""Building, residential"""	"""BLD-RES"""	"""Inspect to update conditions & reissue B202006125 due to ownership change."""	Cinc Building Dept	2021-01-08	2021-01-15	2022-01-08	"""4302 RIVER RD - GJ0578528032 """	45204	39.077148106427	-84.6210665988192	01/08/2021 12:00:00 AM	01/15/2021 12:00:00 AM	01/15/2021 12:00:00 AM
SR21001658	CLOS	"""Building, residential"""	"""BLD-RES"""	"""Request entered through the Web. Refer to Intake Questions for further description."""	Cinc Building Dept	2021-01-07	2021-01-15	2022-01-07	"""2177 SELIM AV, CINC - GJ1163233251"""	45214	39.1227426934969	-84.5518871312372	01/07/2021 12:00:00 AM	01/15/2021 12:00:00 AM	01/15/2021 12:00:00 AM
SR21001657	CLOS	"""Building, residential"""	"""BLD-RES"""	"""Request entered through the Web. Refer to Intake Questions for further description."""	Cinc Building Dept	2021-01-07	2021-01-15	2022-01-07	"""2159 SELIM AV, CINC - GJ1162533172"""	45214	39.12202950569	-84.5519932487101	01/07/2021 12:00:00 AM	01/15/2021 12:00:00 AM	01/15/2021 12:00:00 AM
SR21001265	OPEN	"""Building, residential"""	"""BLD-RES"""	"""Request entered through the Web. Refer to Intake Questions for further description."""	Cinc Building Dept	2021-01-06	2021-01-15	2022-01-06	"""4518 WINTON RD, CINC - GJ1432638630"""	45232	39.1705096633928	-84.5190517368059	01/06/2021 12:00:00 AM	01/15/2021 12:00:00 AM	01/15/2021 12:00:00 AM
SR21004061	NEW	"""Building, residential"""	"""BLD-RES"""	"""Request entered through the Web. Refer to Intake Questions for further description."""	Cinc Building Dept	2021-01-18	2021-01-18	2022-01-18	"""1595 SUMMIT RD, CINC - GJ1924942253"""	45237	39.201899850497	-84.4609412438242	01/18/2021 12:00:00 AM	01/18/2021 12:00:00 AM	01/18/2021 12:00:00 AM
SR21004323	NEW	"""Building, residential"""	"""BLD-RES"""	"""Reissue of case B202004666 to new owner - exterior conditions"""	Cinc Building Dept	2021-01-19	2021-01-19	2022-01-19	"""2021 COLERAIN AV - GJ1327532922 """	45214	39.1193787824726	-84.5330081940771	01/19/2021 12:00:00 AM	01/19/2021 12:00:00 AM	01/19/2021 12:00:00 AM
SR21004206	NEW	"""Building, residential"""	"""BLD-RES"""	"""Bats in the attic, ongoing problem.vents not covered"""	Cinc Building Dept	2021-01-19	2021-01-19	2022-01-19	"""6110 GLADYS AV - GJ1189242077 """	45224	39.2021344626916	-84.5461266100089	01/19/2021 12:00:00 AM	01/19/2021 12:00:00 AM	01/19/2021 12:00:00 AM
SR21004260	NEW	"""Building, fire escape insp"""	"""BLDFRESC"""	"""Examination and report required. Issue order to new owner."""	Cinc Building Dept	2021-01-19	2021-01-19	2022-01-19	"""3244 FAIRFIELD AV - GJ1850635050 """	45207	39.1372342443335	-84.4718716305924	01/19/2021 12:00:00 AM	01/19/2021 12:00:00 AM	01/19/2021 12:00:00 AM
SR21003649	OPEN	"""Building, residential"""	"""BLD-RES"""	"""Request entered through the Web. Refer to Intake Questions for further description."""	Cinc Building Dept	2021-01-15	2021-01-19	2022-01-15	"""5022 LACONIA AV, CINC - GJ1936239544"""	45237	39.1774844052385	-84.4605104355949	01/15/2021 12:00:00 AM	01/19/2021 12:00:00 AM	01/19/2021 12:00:00 AM
SR21003372	CLOS	"""Building, residential"""	"""BLD-RES"""	"""Request entered through the Web. Refer to Intake Questions for further description."""	Cinc Building Dept	2021-01-14	2021-01-19	2022-01-14	"""2277 VINE ST, CINC - GJ1483333379"""	45219	39.1231095955795	-84.5148491061783	01/14/2021 12:00:00 AM	01/19/2021 12:00:00 AM	01/19/2021 12:00:00 AM
SR21003151	OPEN	"""Building, residential"""	"""BLD-RES"""	"""Inspect to update conditions & reissue CC20190102 due to ownership addition.."""	Cinc Building Dept	2021-01-13	2021-01-19	2022-01-13	"""1778 WEBER ST - GJ1191936856 """	45223	39.1551264097877	-84.5474602304546	01/13/2021 12:00:00 AM	01/19/2021 12:00:00 AM	01/19/2021 12:00:00 AM
SR21003148	CLOS	"""Building, residential"""	"""BLD-RES"""	"""No hot water No heat"""	Cinc Building Dept	2021-01-13	2021-01-19	2022-01-13	"""1905 ELMORE ST - GJ1163336897 """	45223	39.1555598145829	-84.5507533417644	01/13/2021 12:00:00 AM	01/19/2021 12:00:00 AM	01/19/2021 12:00:00 AM
SR21002314	OPEN	"""Building, residential"""	"""BLD-RES"""	"""No hot water for 1-7-2020. Raw sewage coming up through the basement. """	Cinc Building Dept	2021-01-11	2021-01-19	2022-01-11	"""696 GREENWOOD AV - GJ1693936792 """	45229	39.153310501893	-84.4894331997454	01/11/2021 12:00:00 AM	01/19/2021 12:00:00 AM	01/19/2021 12:00:00 AM
SR21000397	OPEN	"""Building, residential"""	"""BLD-RES"""	"""Ceiling leaks and now there is water damage to walls. Walls & ceilings are deteriorating. The leaks come from the outside and coming inside the unit.  """	Cinc Building Dept	2021-01-04	2021-01-19	2022-01-04	"""1860 QUEEN CITY AV - GJ1088733701 """	45214	39.1269726598348	-84.5603706515475	01/04/2021 12:00:00 AM	01/19/2021 12:00:00 AM	01/19/2021 12:00:00 AM
SR21004796	NEW	"""Building, residential"""	"""BLD-RES"""	"""Metal piece (cornice?) hanging. caller fears piece will fall"""	Cinc Building Dept	2021-01-20	2021-01-20	2022-01-20	"""3250 GILBERT AV - GJ1812935026 """	45207	39.1371186450417	-84.4762411434024	01/20/2021 12:00:00 AM	01/20/2021 12:00:00 AM	01/20/2021 12:00:00 AM
"""	Cinc Building Dept	2021-01-19	2021-01-20	2022-01-19	""2423 INGLESIDE AV - GJ1801633564 """""	45206	39.1239802813953	-84.4780120674871	01/19/2021 12:00:00 AM	01/20/2021 12:00:00 AM	01/20/2021 12:00:00 AM									
SR21004241	OPEN	"""Building, residential"""	"""BLD-RES"""	"""Bathroom ceiling caving in. Huge hole in living room ceiling. """	Cinc Building Dept	2021-01-19	2021-01-20	2022-01-19	"""1648 SUMMIT RD - GJ1956042340 """	45237	39.2025979214239	-84.4573322105118	01/19/2021 12:00:00 AM	01/20/2021 12:00:00 AM	01/20/2021 12:00:00 AM
SR21003576	OPEN	"""Building, residential"""	"""BLD-RES"""	"""Request entered through the Web. Refer to Intake Questions for further description."""	Cinc Building Dept	2021-01-14	2021-01-20	2022-01-14	"""3011 HACKBERRY ST, CINC - GJ1826234469"""	45206	39.1320667315691	-84.4748755806188	01/14/2021 12:00:00 AM	01/20/2021 12:00:00 AM	01/20/2021 12:00:00 AM
SR21003527	OPEN	"""Building, residential"""	"""BLD-RES"""	"""Reissue to update"""	Cinc Building Dept	2021-01-14	2021-01-20	2022-01-14	"""991 DANA AV - GJ1762136475 """	45229	39.1502828673261	-84.4816443633373	01/14/2021 12:00:00 AM	01/20/2021 12:00:00 AM	01/20/2021 12:00:00 AM
SR21003042	OPEN	"""Building, residential"""	"""BLD-RES"""	"""Hole in roof, animals getting inside the roof/attic area. """	Cinc Building Dept	2021-01-13	2021-01-21	2022-01-13	"""3319 LAKEVIEW AV - GJ0591935818 """	45211	39.1472232154442	-84.6171461094358	01/13/2021 12:00:00 AM	01/21/2021 12:00:00 AM	01/21/2021 12:00:00 AM
SR21001584	CLOS	"""Building, residential"""	"""BLD-RES"""	"""RELOCATION inspection needed. """	Cinc Building Dept	2021-01-07	2021-01-21	2022-01-07	"""6115 GLADYS AV - GJ1183542094 """	45224	39.2022957581191	-84.5467913714857	01/07/2021 12:00:00 AM	01/21/2021 12:00:00 AM	01/21/2021 12:00:00 AM
SR20068771	NEW	"""Landslide, private prop stndrd"""	"""LNDSLP"""	"""Transfer: 01/21/2021 10:35 AM/ERADIGANhillside is continuing to slide onto sidewalk-plastic/wood stakes placed to slow it down. Needs to be addressed before mud goes into roadway. Letter was sent to property owner by DOTE ROW on 10/6/2020 - Request entered through the Web. Refer to Intake Questions for further description."""	Cinc Building Dept	2020-09-12	2021-01-21	2022-01-21	"""925 RIVERSIDE DR, CINC - GJ1663431308"""	45202	39.1040167580329	-84.4947044449937	09/12/2020 12:00:00 AM	01/21/2021 12:00:00 AM	01/21/2021 12:00:00 AM
SR21005335	NEW	"""Building, residential"""	"""BLD-RES"""	"""Request entered through the Web. Refer to Intake Questions for further description."""	Cinc Building Dept	2021-01-22	2021-01-22	2022-01-22	"""2390 W NORTH BEND RD, CINC - GJ1013841288"""	45239	39.1954566260845	-84.5666638958049	01/22/2021 12:00:00 AM	01/22/2021 12:00:00 AM	01/22/2021 12:00:00 AM
SR21004906	OPEN	"""Building, residential"""	"""BLD-RES"""	"""Request entered through the Web. Refer to Intake Questions for further description."""	Cinc Building Dept	2021-01-21	2021-01-22	2022-01-21	"""1543 JONATHAN AV, CINC - GJ1811235641"""	45207	39.1426581861747	-84.4762275745815	01/21/2021 12:00:00 AM	01/22/2021 12:00:00 AM	01/22/2021 12:00:00 AM
SR21004251	OPEN	"""Building, residential"""	"""BLD-RES"""	"""No heat. blowing out cold air"""	Cinc Building Dept	2021-01-19	2021-01-22	2022-01-19	"""545 GRAND AV - GJ1083730924 """	45205	39.1019853162782	-84.5618064985478	01/19/2021 12:00:00 AM	01/22/2021 12:00:00 AM	01/22/2021 12:00:00 AM
SR21004182	OPEN	"""Building, residential"""	"""BLD-RES"""	"""Police request for inspection due to possible squatters & criminal activity."""	Cinc Building Dept	2021-01-19	2021-01-22	2022-01-19	"""1059 ROXIE LN - GJ1323842547 """	45224	39.2060328491838	-84.5304154933838	01/19/2021 12:00:00 AM	01/22/2021 12:00:00 AM	01/22/2021 12:00:00 AM
SR21003918	CLOS	"""Tree, trim required public"""	"""TRTRIMUF"""	"""Transfer: 1/19/2021 8:51 AM/MDIBONAthis came in via Parks Default.  Its a street tree that might have been hit by a car.  take a look when you get a chance.  - Transfer: 01/17/2021 11:29 AM/SMOOREtransfering to Urban Forestry  - Request entered through the Web. Refer to Intake Questions for further description."""	Park Department	2021-01-15	2021-01-22	2022-01-19	"""2900 LAFEUILLE AV, CINC - GJ0827534971"""	45211	39.1390341821271	-84.5901641688923	01/15/2021 12:00:00 AM	01/22/2021 12:00:00 AM	01/22/2021 12:00:00 AM
SR21002585	CLOS	"""Building, residential"""	"""BLD-RES"""	"""Request entered through the Web. Refer to Intake Questions for further description."""	Cinc Building Dept	2021-01-11	2021-01-22	2022-01-11	"""1927 KINNEY AV, CINC - GJ1891634898"""	45207	39.135773402366	-84.467172362052	01/11/2021 12:00:00 AM	01/22/2021 12:00:00 AM	01/22/2021 12:00:00 AM
SR21001407	CLOS	"""Tree, removal request-pub tree"""	"""CPARKF-C"""	"""Transfer: 01/08/2021 5:58 AM/PCLEMONSToday is 1072020 - the City-owned tree was removed in front of 3208 Hanna Avenue awhile ago in the public right away.  The area was never cleaned up properly and no grass  replacement was done.  Do not replace the tree just fix the area where it was removed please. - Request entered through the Web. Refer to Intake Questions for further description."""	Park Department	2021-01-07	2021-01-22	2022-01-08	"""3208 HANNA AV, CINC - GJ0661835302"""	45211	39.1424076582813	-84.6092209652369	01/07/2021 12:00:00 AM	01/22/2021 12:00:00 AM	01/22/2021 12:00:00 AM
SR21000729	OPEN	"""Smoke detector, missing/damagd"""	"""SMOKEDET"""	"""Occupant of apartment is covering smoke detectors and sprinkler head with material that impedes proper function."""	Fire Dept	2021-01-05	2021-01-22	2022-01-05	"""5515 MADISON RD - GJ2472837756 At Address 5515 MADISON RD"""	45227	39.1600134471654	-84.3990604223012	01/05/2021 12:00:00 AM	01/22/2021 12:00:00 AM	01/22/2021 12:00:00 AM
SR21005588	NEW	"""Building, residential"""	"""BLD-RES"""	"""Request entered through the Web. Refer to Intake Questions for further description."""	Cinc Building Dept	2021-01-24	2021-01-24	2022-01-24	"""3255 BISHOP ST, CINC - GJ1488635267"""	45220	39.1400624828028	-84.5135998480032	01/24/2021 12:00:00 AM	01/24/2021 12:00:00 AM	01/24/2021 12:00:00 AM
SR21004968	OPEN	"""Building, residential"""	"""BLD-RES"""	"""No heat-using portable heaters. No water. Mice infestation"""	Cinc Building Dept	2021-01-21	2021-01-25	2022-01-21	"""1775 DREMAN AV - GJ1196836631 """	45223	39.153089331352	-84.5469529319777	01/21/2021 12:00:00 AM	01/25/2021 12:00:00 AM	01/25/2021 12:00:00 AM
SR21004938	OPEN	"""Building, residential"""	"""BLD-RES"""	"""Request entered through the Web. Refer to Intake Questions for further description."""	Cinc Building Dept	2021-01-21	2021-01-25	2022-01-21	"""1130 DRAPER ST, CINC - GJ1306033826"""	45214	39.1275737285651	-84.5352090917387	01/21/2021 12:00:00 AM	01/25/2021 12:00:00 AM	01/25/2021 12:00:00 AM
SR21004579	OPEN	"""Building, residential"""	"""BLD-RES"""	"""Request entered through the Web. Refer to Intake Questions for further description."""	Cinc Building Dept	2021-01-20	2021-01-25	2022-01-20	"""1033 PARKSON PL, CINC - """	45204	39.1109335215687	-84.5597703848729	01/20/2021 12:00:00 AM	01/25/2021 12:00:00 AM	01/25/2021 12:00:00 AM
SR21002940	OPEN	"""Building, residential"""	"""BLD-RES"""	"""Request entered through the Web. Refer to Intake Questions for further description."""	Cinc Building Dept	2021-01-12	2021-01-25	2022-01-12	"""167 KINSEY AV, CINC - GJ1563633630"""	45219	39.1251750488177	-84.5054942716638	01/12/2021 12:00:00 AM	01/25/2021 12:00:00 AM	01/25/2021 12:00:00 AM
SR20075468	CLOS	"""Landslide, private prop stndrd"""	"""LNDSLP"""	"""Transfer: 01/21/2021 1:42 PM/ERADIGANmud and debris continuing to slide onto sidewalk, letter sent and returned 10/16/2020 - Request entered through the Web. Refer to Intake Questions for further description."""	Cinc Building Dept	2020-10-07	2021-01-25	2022-01-21	"""436 BOAL ST, CINC - """	45202	39.1138616985814	-84.5073080032366	10/07/2020 12:00:00 AM	01/25/2021 12:00:00 AM	01/25/2021 12:00:00 AM
SR21006154	NEW	"""Building, residential"""	"""BLD-RES"""	"""Retainer wall is bulging and bricks have started to come out of the wall onto the caller's property. """	Cinc Building Dept	2021-01-26	2021-01-26	2022-01-26	"""1738 MINION AV - GJ0959332907 """	45205	39.1201347509593	-84.5755773937067	01/26/2021 12:00:00 AM	01/26/2021 12:00:00 AM	01/26/2021 12:00:00 AM
SR21005422	OPEN	"""Building, residential"""	"""BLD-RES"""	"""Two level porch is rotted.  leaks in betweeing walls, chipping paint.  Roof leaks electrical iand foundation issues."""	Cinc Building Dept	2021-01-22	2021-01-26	2022-01-21	"""1972 HORTON ST - GJ1046533872 """	45214	39.1286114382223	-84.5652000140537	01/22/2021 12:00:00 AM	01/26/2021 12:00:00 AM	01/26/2021 12:00:00 AM
SR21006071	OPEN	"""Building, residential"""	"""BLD-RES"""	"""Request entered through the Web. Refer to Intake Questions for further description."""	Cinc Building Dept	2021-01-26	2021-01-27	2022-01-26	"""1615 NEILSON PL, CINC - GJ1821034601"""	45206	39.1332765630795	-84.4754349673449	01/26/2021 12:00:00 AM	01/27/2021 12:00:00 AM	01/27/2021 12:00:00 AM
SR21005700	OPEN	"""Building, residential"""	"""BLD-RES"""	"""No CO detector installed after repairs or replacement of furnace."""	Cinc Building Dept	2021-01-25	2021-01-27	2022-01-25	"""7064 GLEN MEADOW LN - GJ1874940837 """	45237	39.1892709781924	-84.4671915720134	01/25/2021 12:00:00 AM	01/27/2021 12:00:00 AM	01/27/2021 12:00:00 AM
SR21005744	OPEN	"""Building, residential"""	"""BLD-RES"""	"""No heat for 3 months"""	Cinc Building Dept	2021-01-25	2021-01-27	2022-01-25	"""330 W 4TH ST - GJ1459830718 """	45202	39.0992118792273	-84.5184223141546	01/25/2021 12:00:00 AM	01/27/2021 12:00:00 AM	01/27/2021 12:00:00 AM
SR21005707	OPEN	"""Building, residential"""	"""BLD-RES"""	"""Issue existing orders to update ownership"""	Cinc Building Dept	2021-01-25	2021-01-27	2022-01-25	"""115 LOUIS AV - GJ1547235392 """	45220	39.1410749979692	-84.50684005552	01/25/2021 12:00:00 AM	01/27/2021 12:00:00 AM	01/27/2021 12:00:00 AM
SR21005338	OPEN	"""Building, residential"""	"""BLD-RES"""	"""Reissue of case B202002766 - to include person in control."""	Cinc Building Dept	2021-01-22	2021-01-27	2022-01-22	"""1614 CLAREWOOD AV - GJ1824635549 """	45207	39.1417884837997	-84.4747254617595	01/22/2021 12:00:00 AM	01/27/2021 12:00:00 AM	01/27/2021 12:00:00 AM
SR21005185	OPEN	"""Building, residential"""	"""BLD-RES"""	"""Inspect to update conditions & reissue B202004584 due to ownership change."""	Cinc Building Dept	2021-01-22	2021-01-27	2022-01-22	"""5015 SIDNEY RD - GJ0717333199 """	45238	39.1233425293111	-84.6034555784527	01/22/2021 12:00:00 AM	01/27/2021 12:00:00 AM	01/27/2021 12:00:00 AM
SR21005070	OPEN	"""Building, residential"""	"""BLD-RES"""	"""Gutters has holes, Back downspout has holes. Toilet doesn't flush properly. Side of building near the roof is a broken vent, animals are getting inside the house. Wasp/Bee nest on outside of building has grown into the building. Mice infestation. """	Cinc Building Dept	2021-01-21	2021-01-27	2022-01-21	"""7054 GLEN MEADOW LN - GJ1874840811 """	45237	39.1890425460973	-84.4672204662615	01/21/2021 12:00:00 AM	01/27/2021 12:00:00 AM	01/27/2021 12:00:00 AM
SR21004060	OPEN	"""Building, residential"""	"""BLD-RES"""	"""Request entered through the Web. Refer to Intake Questions for further description."""	Cinc Building Dept	2021-01-18	2021-01-27	2022-01-18	"""1607 SUMMIT RD, CINC - GJ1937442266"""	45237	39.2019875397863	-84.4594894720626	01/18/2021 12:00:00 AM	01/27/2021 12:00:00 AM	01/27/2021 12:00:00 AM
SR21002889	OPEN	"""Building, residential"""	"""BLD-RES"""	"""Request entered through the Web. Refer to Intake Questions for further description."""	Cinc Building Dept	2021-01-12	2021-01-27	2022-01-12	"""3237 GILBERT AV, CINC - GJ1807235018"""	45207	39.1370635472455	-84.4768955078689	01/12/2021 12:00:00 AM	01/27/2021 12:00:00 AM	01/27/2021 12:00:00 AM
SR21007057	NEW	"""Sign Shop,Internal New Request"""	"""SGNSHPNI"""	"""See email and or contact Dave Hadsell for further details."""	Public Services	2021-01-28	2021-01-28	2022-01-28	"""3300 COLERAIN AV - GJ1278335589 """	45225	39.1435054955578	-84.5378569044142	01/28/2021 12:00:00 AM	01/28/2021 12:00:00 AM	01/28/2021 12:00:00 AM
SR21006176	OPEN	"""Building, residential"""	"""BLD-RES"""	"""Request entered through the Web. Refer to Intake Questions for further description."""	Cinc Building Dept	2021-01-26	2021-01-28	2022-01-26	"""1733 SYCAMORE ST, CINC - GJ1520532461"""	45202	39.1147587345531	-84.5108518783303	01/26/2021 12:00:00 AM	01/28/2021 12:00:00 AM	01/28/2021 12:00:00 AM
SR21004958	CLOS	"""Building, residential"""	"""BLD-RES"""	"""Request entered through the Web. Refer to Intake Questions for further description."""	Cinc Building Dept	2021-01-21	2021-01-28	2022-01-21	"""2321 FLORA ST, CINC - GJ1396433642"""	45219	39.1256959712261	-84.5248168350231	01/21/2021 12:00:00 AM	01/28/2021 12:00:00 AM	01/28/2021 12:00:00 AM
SR21004328	OPEN	"""Building, residential"""	"""BLD-RES"""	"""Toilet leaking, tile coming up. open electrial wires in living room. Entrance door has gap."""	Cinc Building Dept	2021-01-19	2021-01-28	2022-01-19	"""1999 SUTTER AV - GJ1104235230 """	45225	39.1406981597397	-84.5580996687404	01/19/2021 12:00:00 AM	01/28/2021 12:00:00 AM	01/28/2021 12:00:00 AM
SR21007333	NEW	"""Building, residential"""	"""BLD-RES"""	"""boards and panels missing and fence is falling over."""	Cinc Building Dept	2021-01-29	2021-01-29	2022-01-29	"""6135 MONTGOMERY RD - GJ2235040266 """	45213	39.1832162328262	-84.4257326831158	01/29/2021 12:00:00 AM	01/29/2021 12:00:00 AM	01/29/2021 12:00:00 AM
SR21005146	CLOS	"""Building, residential"""	"""BLD-RES"""	"""Request entered through the Web. Refer to Intake Questions for further description."""	Cinc Building Dept	2021-01-21	2021-01-29	2022-01-21	"""3506 LINWOOD AV, CINC - GJ2293833904"""	45226	39.1258041256939	-84.4210084337368	01/21/2021 12:00:00 AM	01/29/2021 12:00:00 AM	01/29/2021 12:00:00 AM
SR21004571	OPEN	"""Building, residential"""	"""BLD-RES"""	"""Request entered through the Web. Refer to Intake Questions for further description."""	Cinc Building Dept	2021-01-20	2021-01-29	2022-01-20	"""167 KENWOOD AV, CINC - GJ2280527469"""	45228	39.0679122771729	-84.4246563057507	01/20/2021 12:00:00 AM	01/29/2021 12:00:00 AM	01/29/2021 12:00:00 AM
SR21004506	OPEN	"""Building, residential"""	"""BLD-RES"""	"""Issue existing orders to update ownership"""	Cinc Building Dept	2021-01-20	2021-01-29	2022-01-20	"""2493 WALNUTVIEW CT - GJ2658731116 """	45230	39.0997589509125	-84.3797833198084	01/20/2021 12:00:00 AM	01/29/2021 12:00:00 AM	01/29/2021 12:00:00 AM
SR21004456	OPEN	"""Building, residential"""	"""BLD-RES"""	"""Asphltl falling off on sides, no gutters, no permanent cover over side of house in the rear."""	Cinc Building Dept	2021-01-19	2021-01-29	2022-01-19	"""6521 GLEN AV - GJ2307940986 """	45213	39.1895169613224	-84.4170617051592	01/19/2021 12:00:00 AM	01/29/2021 12:00:00 AM	01/29/2021 12:00:00 AM
SR21004124	OPEN	"""Building, residential"""	"""BLD-RES"""	"""Request entered through the Web. Refer to Intake Questions for further description."""	Cinc Building Dept	2021-01-18	2021-01-29	2022-01-18	"""3619 NORTHDALE PL, CINC - GJ2340440111"""	45213	39.1815581642167	-84.4135770898012	01/18/2021 12:00:00 AM	01/29/2021 12:00:00 AM	01/29/2021 12:00:00 AM
SR21003848	OPEN	"""Building, residential"""	"""BLD-RES"""	"""Auxillary structure built in front without permits. Multiple dogs and kennels in the back yard."""	Cinc Building Dept	2021-01-15	2021-01-29	2022-01-15	"""1122 HERSCHEL AV - GJ2269134040 """	45208	39.127086547161	-84.4238289023256	01/15/2021 12:00:00 AM	01/29/2021 12:00:00 AM	01/29/2021 12:00:00 AM
SR21003171	CLOS	"""Building, residential"""	"""BLD-RES"""	"""Request entered through the Web. Refer to Intake Questions for further description."""	Cinc Building Dept	2021-01-13	2021-01-29	2022-01-13	"""3521 HERSCHEL VIEW PL, CINC - GJ2290635363"""	45208	39.1389414510881	-84.4208948254612	01/13/2021 12:00:00 AM	01/29/2021 12:00:00 AM	01/29/2021 12:00:00 AM
SR21003177	CLOS	"""Building, residential"""	"""BLD-RES"""	"""Request entered through the Web. Refer to Intake Questions for further description."""	Cinc Building Dept	2021-01-13	2021-01-29	2022-01-13	"""3328 AVERY LN, CINC - GJ2267135291"""	45208	39.1383576037439	-84.4236435986331	01/13/2021 12:00:00 AM	01/29/2021 12:00:00 AM	01/29/2021 12:00:00 AM
SR21007549	CLOS	"""Building, residential"""	"""BLD-RES"""	"""Request entered through the Web. Refer to Intake Questions for further description."""	Cinc Building Dept	2021-01-31	2021-02-01	2022-01-31	"""2734 ENSLIN ST, CINC - GJ1370534262"""	45225	39.131342948632	-84.5276170197915	01/31/2021 12:00:00 AM	02/01/2021 12:00:00 AM	02/01/2021 12:00:00 AM
SR21007551	CLOS	"""Building, residential"""	"""BLD-RES"""	"""Request entered through the Web. Refer to Intake Questions for further description."""	Cinc Building Dept	2021-01-31	2021-02-01	2022-01-31	"""2734 ENSLIN ST, CINC - GJ1370534262"""	45225	39.131342948632	-84.5276170197915	01/31/2021 12:00:00 AM	02/01/2021 12:00:00 AM	02/01/2021 12:00:00 AM
SR21007058	CLOS	"""Building, residential"""	"""BLD-RES"""	"""No heat. Gap under the door"""	Cinc Building Dept	2021-01-28	2021-02-01	2022-01-28	"""1644 SUMMIT RD - GJ1954342338 """	45237	39.2025837872417	-84.4575188900803	01/28/2021 12:00:00 AM	02/01/2021 12:00:00 AM	02/01/2021 12:00:00 AM
SR21005831	OPEN	"""Building, residential"""	"""BLD-RES"""	"""Issue existing orders to update ownership"""	Cinc Building Dept	2021-01-25	2021-02-01	2022-01-25	"""1418 MARLOWE AV - GJ1218541845 """	45224	39.1999709997995	-84.5428163330451	01/25/2021 12:00:00 AM	02/01/2021 12:00:00 AM	02/01/2021 12:00:00 AM
SR21005027	CLOS	"""Building, residential"""	"""BLD-RES"""	"""Broken windows and blighted door. """	Cinc Building Dept	2021-01-21	2021-02-01	2022-01-21	"""2560 HARRISON AV - GJ0870535324 """	45211	39.1421108962675	-84.5850889284443	01/21/2021 12:00:00 AM	02/01/2021 12:00:00 AM	02/01/2021 12:00:00 AM
SR21003130	OPEN	"""Building, residential"""	"""BLD-RES"""	"""Inspect to update conditions & reissue B202001679 due to ownership change."""	Cinc Building Dept	2021-01-13	2021-02-01	2022-01-13	"""810 SUNSET AV - GJ0876831492 """	45205	39.1075889172368	-84.5855390500323	01/13/2021 12:00:00 AM	02/01/2021 12:00:00 AM	02/01/2021 12:00:00 AM
SR21003074	CLOS	"""Building, residential"""	"""BLD-RES"""	"""Request entered through the Web. Refer to Intake Questions for further description."""	Cinc Building Dept	2021-01-13	2021-02-01	2022-01-13	"""3282 MONTANA AV, CINC - GJ0647736074"""	45211	39.1493965206833	-84.6106193110496	01/13/2021 12:00:00 AM	02/01/2021 12:00:00 AM	02/01/2021 12:00:00 AM
SR21000996	CLOS	"""Building, residential"""	"""BLD-RES"""	"""Request entered through the Web. Refer to Intake Questions for further description."""	Cinc Building Dept	2021-01-05	2021-02-01	2022-01-05	"""2879 RATTERMAN AV, CINC - GJ0778035477"""	45211	39.1437150842742	-84.5957346853218	01/05/2021 12:00:00 AM	02/01/2021 12:00:00 AM	02/01/2021 12:00:00 AM
SR21007583	OPEN	"""Building, residential"""	"""BLD-RES"""	"""Reissue of KVBV case B202005606 to exterior only conditions after interior inspection."""	Cinc Building Dept	2021-02-01	2021-02-02	2022-02-01	"""818 LIVINGSTON ST - GJ1373132524 """	45214	39.1156788860509	-84.5278669898283	02/01/2021 12:00:00 AM	02/02/2021 12:00:00 AM	02/02/2021 12:00:00 AM
SR21006165	CLOS	"""Building, residential"""	"""BLD-RES"""	"""No hot water for a month. Heat goes in and out. """	Cinc Building Dept	2021-01-26	2021-02-02	2022-01-26	"""3600 TACOMA AV - GJ1531036279 """	45220	39.1490997599671	-84.5084270530279	01/26/2021 12:00:00 AM	02/02/2021 12:00:00 AM	02/02/2021 12:00:00 AM
SR21005990	OPEN	"""Building, residential"""	"""BLD-RES"""	"""wires chewed by rodents"""	Cinc Building Dept	2021-01-25	2021-02-02	2022-01-25	"""1072 RACHEL ST - GJ1292734776 """	45225	39.1361534197454	-84.5364554130386	01/25/2021 12:00:00 AM	02/02/2021 12:00:00 AM	02/02/2021 12:00:00 AM
SR21004332	OPEN	"""Building, residential"""	"""BLD-RES"""	"""Request entered through the Web. Refer to Intake Questions for further description."""	Cinc Building Dept	2021-01-19	2021-02-02	2022-01-19	"""2015 HIGHLAND AV, CINC - GJ1577532886"""	45219	39.1184426309994	-84.5041318247605	01/19/2021 12:00:00 AM	02/02/2021 12:00:00 AM	02/02/2021 12:00:00 AM
SR21008244	NEW	"""Building, residential"""	"""BLD-RES"""	"""Request entered through the Web. Refer to Intake Questions for further description."""	Cinc Building Dept	2021-02-03	2021-02-03	2022-02-03	"""2855 MONTANA AV, CINC - GJ0808036046"""	45211	39.1487627955189	-84.5920935307116	02/03/2021 12:00:00 AM	02/03/2021 12:00:00 AM	02/03/2021 12:00:00 AM
SR21008003	OPEN	"""Building, residential"""	"""BLD-RES"""	"""Request entered through the Web. Refer to Intake Questions for further description."""	Cinc Building Dept	2021-02-02	2021-02-03	2022-02-02	"""1068 RACHEL ST, CINC - GJ1293834779"""	45225	39.1361805390152	-84.5363186680391	02/02/2021 12:00:00 AM	02/03/2021 12:00:00 AM	02/03/2021 12:00:00 AM
SR21007208	CLOS	"""Building, residential"""	"""BLD-RES"""	"""Water heater tagged out due to excessive CO."""	Cinc Building Dept	2021-01-29	2021-02-03	2022-01-29	"""803 ACADEMY AV - GJ0928431432 """	45205	39.106923903162	-84.5796008632185	01/29/2021 12:00:00 AM	02/03/2021 12:00:00 AM	02/03/2021 12:00:00 AM
SR21008571	NEW	"""Building, facade/fire escape"""	"""BLDFRFAC"""	"""Reissue BF16000574 due to ownership change"""	Cinc Building Dept	2021-02-04	2021-02-04	2022-02-04	"""1764 QUEEN CITY AV - GJ1122933609 """	45214	39.1260565053076	-84.5564405998123	02/04/2021 12:00:00 AM	02/04/2021 12:00:00 AM	02/04/2021 12:00:00 AM
SR21006056	CLOS	"""Building, residential"""	"""BLD-RES"""	"""Request entered through the Web. Refer to Intake Questions for further description."""	Cinc Building Dept	2021-01-25	2021-02-04	2022-01-25	"""3346 MCHENRY AV, CINC - GJ0988235880"""	45225	39.1468377028025	-84.5712833905948	01/25/2021 12:00:00 AM	02/04/2021 12:00:00 AM	02/04/2021 12:00:00 AM
SR21005898	OPEN	"""Building, residential"""	"""BLD-RES"""	"""Kitchen wall has hole where connecting with floor."""	Cinc Building Dept	2021-01-25	2021-02-04	2022-01-25	"""3538 SCHWARTZE AV - GJ0589535667 """	45211	39.1458605413982	-84.6174718776963	01/25/2021 12:00:00 AM	02/04/2021 12:00:00 AM	02/04/2021 12:00:00 AM
SR21004828	CLOS	"""Building, residential"""	"""BLD-RES"""	"""Hose  and electric line on ground going across the Willow alley very dangerous"""	Cinc Building Dept	2021-01-20	2021-02-04	2022-01-20	"""7125 FAIRPARK AV - GJ1759641562 """	45216	39.1960922219442	-84.4803000918663	01/20/2021 12:00:00 AM	02/04/2021 12:00:00 AM	02/04/2021 12:00:00 AM
SR21008857	NEW	"""Building, facade/fire escape"""	"""BLDFRFAC"""	"""Fire escape report required."""	Cinc Building Dept	2021-02-05	2021-02-05	2022-02-05	"""1226 MANSS AV - GJ0940432337 """	45205	39.1150420513447	-84.5779266102677	02/05/2021 12:00:00 AM	02/05/2021 12:00:00 AM	02/05/2021 12:00:00 AM
SR21008799	NEW	"""Sign Shop,Internal New Request"""	"""SGNSHPNI"""	"""Police Car decals. Contact Dave Hadsell."""	Public Services	2021-02-05	2021-02-05	2022-02-05	"""3300 COLERAIN AV - GJ1278335589 """	45225	39.1435054955578	-84.5378569044142	02/05/2021 12:00:00 AM	02/05/2021 12:00:00 AM	02/05/2021 12:00:00 AM
SR21008794	NEW	"""Sign Shop,Internal New Request"""	"""SGNSHPNI"""	"""Body Shop decals. Contact Dave Hadsell."""	Public Services	2021-02-05	2021-02-05	2022-02-05	"""3300 COLERAIN AV - GJ1278335589 """	45225	39.1435054955578	-84.5378569044142	02/05/2021 12:00:00 AM	02/05/2021 12:00:00 AM	02/05/2021 12:00:00 AM
SR21007764	CLOS	"""Building, residential"""	"""BLD-RES"""	"""Apartment door has a defective lock. Tenant is unable to leave due to she would not be able to reenter because the door will not unlock."""	Cinc Building Dept	2021-02-01	2021-02-05	2022-02-01	"""330 FOREST AV - GJ1594136125 """	45229	39.1475524781652	-84.5011843130134	02/01/2021 12:00:00 AM	02/05/2021 12:00:00 AM	02/05/2021 12:00:00 AM
SR21004901	CLOS	"""Building, residential"""	"""BLD-RES"""	"""Bathroom ceiling leaking into all rooms"""	Cinc Building Dept	2021-01-21	2021-02-05	2022-01-21	"""1014 WINFIELD AV - GJ0888131825 """	45205	39.1105610396622	-84.5841360242569	01/21/2021 12:00:00 AM	02/05/2021 12:00:00 AM	02/05/2021 12:00:00 AM
SR21009055	NEW	"""Building, residential"""	"""BLD-RES"""	"""Request entered through the Web. Refer to Intake Questions for further description."""	Cinc Building Dept	2021-02-06	2021-02-06	2022-02-06	"""3973 LOWRY AV, CINC - GJ1646437462"""	45229	39.1594624453898	-84.494697579891	02/06/2021 12:00:00 AM	02/06/2021 12:00:00 AM	02/06/2021 12:00:00 AM
SR21009532	NEW	"""Building, facade/fire escape"""	"""BLDFRFAC"""	"""Fire escape report required - confirm building has FE"""	Cinc Building Dept	2021-02-08	2021-02-08	2022-02-08	"""1219 ROSS AV - GJ0973132309 """	45205	39.1147168116701	-84.5741589446726	02/08/2021 12:00:00 AM	02/08/2021 12:00:00 AM	02/08/2021 12:00:00 AM
SR21009517	NEW	"""Building, residential"""	"""BLD-RES"""	"""Above ground pool improperly located and possibly in violation of permissible regulations."""	Cinc Building Dept	2021-02-08	2021-02-08	2022-02-08	"""4622 WINONA TER - GJ2576237354 """	45227	39.1561310142922	-84.3872378387996	02/08/2021 12:00:00 AM	02/08/2021 12:00:00 AM	02/08/2021 12:00:00 AM
SR21008055	OPEN	"""Building, residential"""	"""BLD-RES"""	"""When it rains, water comes in throught the living room wall. Water coming through window."""	Cinc Building Dept	2021-02-02	2021-02-08	2022-02-02	"""2749 QUEEN CITY AV - GJ0799234288 """	45238	39.1329512395836	-84.5936471823745	02/02/2021 12:00:00 AM	02/08/2021 12:00:00 AM	02/08/2021 12:00:00 AM
"""	Cinc Building Dept	2021-02-01	2021-02-08	2022-02-01	""1020 PURCELL AV - GJ1062931896 """""	45205	39.1107830043727	-84.563908053695	02/01/2021 12:00:00 AM	02/08/2021 12:00:00 AM	02/08/2021 12:00:00 AM									
SR21007131	OPEN	"""Building, residential"""	"""BLD-RES"""	"""Request entered through the Web. Refer to Intake Questions for further description."""	Cinc Building Dept	2021-01-28	2021-02-08	2022-01-28	"""2419 MAY ST, CINC - GJ1650633677"""	45206	39.1253817580692	-84.4954268150126	01/28/2021 12:00:00 AM	02/08/2021 12:00:00 AM	02/08/2021 12:00:00 AM
SR21005906	OPEN	"""Building, residential"""	"""BLD-RES"""	"""Basement apartment. Bathroom ceiling leaks. Common hallway leaks. Spider infestation. """	Cinc Building Dept	2021-01-25	2021-02-08	2022-01-25	"""3951 W 8TH ST - GJ0914231303 """	45205	39.1058008048856	-84.5812737298322	01/25/2021 12:00:00 AM	02/08/2021 12:00:00 AM	02/08/2021 12:00:00 AM
SR21005981	OPEN	"""Building, residential"""	"""BLD-RES"""	"""Request entered through the Web. Refer to Intake Questions for further description."""	Cinc Building Dept	2021-01-25	2021-02-08	2022-01-25	"""1035 PARKSON PL, CINC - """	45204	39.1109995255405	-84.5597652674057	01/25/2021 12:00:00 AM	02/08/2021 12:00:00 AM	02/08/2021 12:00:00 AM
SR21004168	CLOS	"""Building, residential"""	"""BLD-RES"""	"""No hot water"""	Cinc Building Dept	2021-01-19	2021-02-08	2022-01-19	"""5469 KIRBY AV - GJ1007640802 """	45223	39.1910989981159	-84.5675415341136	01/19/2021 12:00:00 AM	02/08/2021 12:00:00 AM	02/08/2021 12:00:00 AM
SR21008896	OPEN	"""Building, residential"""	"""BLD-RES"""	"""Request entered through the Web. Refer to Intake Questions for further description."""	Cinc Building Dept	2021-02-05	2021-02-09	2022-02-05	"""1027 GRAND AV, CINC - GJ1089331927"""	45205	39.1110076813483	-84.5608512621449	02/05/2021 12:00:00 AM	02/09/2021 12:00:00 AM	02/09/2021 12:00:00 AM
SR21008327	CLOS	"""Building, residential"""	"""BLD-RES"""	"""Request entered through the Web. Refer to Intake Questions for further description."""	Cinc Building Dept	2021-02-03	2021-02-09	2022-02-03	"""2508 BEECHMONT AV, CINC - GJ2609331198"""	45230	39.1006363755157	-84.3854459819986	02/03/2021 12:00:00 AM	02/09/2021 12:00:00 AM	02/09/2021 12:00:00 AM
SR21008137	CLOS	"""Building, residential"""	"""BLD-RES"""	"""No hot water since 1-29, hot water tank leaks.Broken windows. Electrical issues-multiple outlets don't work and the lights constantly flicker on & off. No stove."""	Cinc Building Dept	2021-02-02	2021-02-09	2022-02-02	"""1915 DALEWOOD PL - GJ1928339370 """	45237	39.1759271721518	-84.4614902125522	02/02/2021 12:00:00 AM	02/09/2021 12:00:00 AM	02/09/2021 12:00:00 AM
SR21007548	CLOS	"""Building, residential"""	"""BLD-RES"""	"""Request entered through the Web. Refer to Intake Questions for further description."""	Cinc Building Dept	2021-01-31	2021-02-09	2022-01-31	"""2734 ENSLIN ST, CINC - GJ1370534262"""	45225	39.131342948632	-84.5276170197915	01/31/2021 12:00:00 AM	02/09/2021 12:00:00 AM	02/09/2021 12:00:00 AM
SR21005694	OPEN	"""Building, residential"""	"""BLD-RES"""	"""Request entered through the Web. Refer to Intake Questions for further description."""	Cinc Building Dept	2021-01-25	2021-02-09	2022-01-25	"""817 OVERLOOK AV, CINC - GJ0750231765"""	45238	39.1103609852191	-84.6000850505062	01/25/2021 12:00:00 AM	02/09/2021 12:00:00 AM	02/09/2021 12:00:00 AM
SR21005810	OPEN	"""Building, residential"""	"""BLD-RES"""	"""No hot water."""	Cinc Building Dept	2021-01-25	2021-02-09	2022-01-25	"""810 N FRED SHUTTLESWORTH CIR - GJ1728536829 """	45229	39.1535605564729	-84.4854192101564	01/25/2021 12:00:00 AM	02/09/2021 12:00:00 AM	02/09/2021 12:00:00 AM
SR21003011	OPEN	"""Building, residential"""	"""BLD-RES"""	"""Reissue conditions under B201900268 to update ownership"""	Cinc Building Dept	2021-01-13	2021-02-09	2022-01-13	"""2508 BEECHMONT AV - GJ2609131198 """	45230	39.1006248793168	-84.3854773944944	01/13/2021 12:00:00 AM	02/09/2021 12:00:00 AM	02/09/2021 12:00:00 AM
SR21001730	CLOS	"""Building, residential"""	"""BLD-RES"""	"""Request entered through the Web. Refer to Intake Questions for further description."""	Cinc Building Dept	2021-01-08	2021-02-09	2022-01-08	"""242 NORTHERN AV, CINC - GJ1575835748"""	45229	39.144210334949	-84.5034027570433	01/08/2021 12:00:00 AM	02/09/2021 12:00:00 AM	02/09/2021 12:00:00 AM
SR21000873	CLOS	"""Building, residential"""	"""BLD-RES"""	"""Request entered through the Web. Refer to Intake Questions for further description."""	Cinc Building Dept	2021-01-05	2021-02-09	2022-01-05	"""2504 FORTHMANN PL, CINC - GJ0930534376"""	45211	39.1334335283198	-84.5784454345639	01/05/2021 12:00:00 AM	02/09/2021 12:00:00 AM	02/09/2021 12:00:00 AM
SR21010086	NEW	"""Sign Shop,Internal New Request"""	"""SGNSHPNI"""	"""Fire Decals for the Body Shop. See email from Dave Hadsell."""	Public Services	2021-02-10	2021-02-10	2022-02-10	"""3300 COLERAIN AV - GJ1278335589 """	45225	39.1435054955578	-84.5378569044142	02/10/2021 12:00:00 AM	02/10/2021 12:00:00 AM	02/10/2021 12:00:00 AM
SR21010074	NEW	"""Building, facade/fire escape"""	"""BLDFRFAC"""	"""Reissue BF16000573 due to ownership change"""	Cinc Building Dept	2021-02-10	2021-02-10	2022-02-10	"""1760 QUEEN CITY AV - GJ1125033611 """	45214	39.1260689290167	-84.5562047256248	02/10/2021 12:00:00 AM	02/10/2021 12:00:00 AM	02/10/2021 12:00:00 AM
SR21010091	NEW	"""Sign Shop,Internal New Request"""	"""SGNSHPNI"""	"""Fire Decals. See email from Dave Hadsell."""	Public Services	2021-02-10	2021-02-10	2022-02-10	"""3300 COLERAIN AV - GJ1278335589 """	45225	39.1435054955578	-84.5378569044142	02/10/2021 12:00:00 AM	02/10/2021 12:00:00 AM	02/10/2021 12:00:00 AM
SR21010180	NEW	"""Building, residential"""	"""BLD-RES"""	"""No hot water for 6 days."""	Cinc Building Dept	2021-02-10	2021-02-10	2022-02-10	"""7320 READING RD - GJ1942341556 """	45237	39.1955777452607	-84.4591624572674	02/10/2021 12:00:00 AM	02/10/2021 12:00:00 AM	02/10/2021 12:00:00 AM
SR21010093	NEW	"""Sign Shop,Internal New Request"""	"""SGNSHPNI"""	"""MSD decals for the Body Shop. See email from Dave Hadsell."""	Public Services	2021-02-10	2021-02-10	2022-02-10	"""3300 COLERAIN AV - GJ1278335589 """	45225	39.1435054955578	-84.5378569044142	02/10/2021 12:00:00 AM	02/10/2021 12:00:00 AM	02/10/2021 12:00:00 AM
SR21010081	NEW	"""Sign Shop,Internal New Request"""	"""SGNSHPNI"""	"""Recreation decals for the Body Shop. Please see the email from Dave Hadsell."""	Public Services	2021-02-10	2021-02-10	2022-02-10	"""3300 COLERAIN AV - GJ1278335589 """	45225	39.1435054955578	-84.5378569044142	02/10/2021 12:00:00 AM	02/10/2021 12:00:00 AM	02/10/2021 12:00:00 AM
SR21010191	NEW	"""Building, residential"""	"""BLD-RES"""	"""No hot water."""	Cinc Building Dept	2021-02-10	2021-02-10	2022-02-10	"""1857 SECTION RD - GJ1979641714 """	45237	39.1968981090025	-84.4548016459833	02/10/2021 12:00:00 AM	02/10/2021 12:00:00 AM	02/10/2021 12:00:00 AM
SR21010270	NEW	"""Building, residential"""	"""BLD-RES"""	"""Bathroom floor has hole in it. Sewage smell in the basement. Drinking water needs to be tested, she believes that her drinking water is making sick. """	Cinc Building Dept	2021-02-10	2021-02-10	2022-02-10	"""274 STARK ST - GJ1404432986 """	45214	39.1197680227835	-84.5241067482922	02/10/2021 12:00:00 AM	02/10/2021 12:00:00 AM	02/10/2021 12:00:00 AM
SR21008808	OPEN	"""Building, residential"""	"""BLD-RES"""	"""No heat."""	Cinc Building Dept	2021-02-05	2021-02-10	2022-02-05	"""4510 COLERAIN AV - GJ1128938293 """	45223	39.1682155213474	-84.5542943484782	02/05/2021 12:00:00 AM	02/10/2021 12:00:00 AM	02/10/2021 12:00:00 AM
SR21008321	OPEN	"""Building, residential"""	"""BLD-RES"""	"""Outside; the """"sewage drain"""" constantly backs up and floods into the street &  building causing flodding & damage to the unit. """	Cinc Building Dept	2021-02-03	2021-02-10	2022-02-03	"""2000 WESTWOOD NORTHERN BLVD - GJ1098435616 """	45225	39.1441898844807	-84.5586568505472	02/03/2021 12:00:00 AM	02/10/2021 12:00:00 AM	02/10/2021 12:00:00 AM
SR21007995	OPEN	"""Building, residential"""	"""BLD-RES"""	"""Ceiling leaks throughout the apartment. Ceiling has cracks. Water damage on the ceiling and walls. Bedroom closet ceiling has a huge crack and leaks. """	Cinc Building Dept	2021-02-02	2021-02-10	2022-02-02	"""5424 HAMILTON AV - GJ1197340588 """	45224	39.1887102412254	-84.5456650766163	02/02/2021 12:00:00 AM	02/10/2021 12:00:00 AM	02/10/2021 12:00:00 AM
SR21007632	CLOS	"""Building, residential"""	"""BLD-RES"""	"""Hallway ceiling & walls leaks. Secondary bedroom ceiling & walls leaks.  """	Cinc Building Dept	2021-02-01	2021-02-10	2022-02-01	"""5491 GLENGATE LN - GJ2158939193 """	45212	39.1737514202679	-84.4348795439883	02/01/2021 12:00:00 AM	02/10/2021 12:00:00 AM	02/10/2021 12:00:00 AM
SR21007550	OPEN	"""Building, residential"""	"""BLD-RES"""	"""Request entered through the Web. Refer to Intake Questions for further description."""	Cinc Building Dept	2021-01-31	2021-02-10	2022-01-31	"""2734 ENSLIN ST, CINC - GJ1370534262"""	45225	39.131342948632	-84.5276170197915	01/31/2021 12:00:00 AM	02/10/2021 12:00:00 AM	02/10/2021 12:00:00 AM
SR21003118	OPEN	"""Building, residential"""	"""BLD-RES"""	"""No heat for 3 weeks."""	Cinc Building Dept	2021-01-13	2021-02-10	2022-01-13	"""3418 READING RD - GJ1674235506 """	45229	39.1417820925982	-84.4921152281006	01/13/2021 12:00:00 AM	02/10/2021 12:00:00 AM	02/10/2021 12:00:00 AM
SR21002018	OPEN	"""Building, residential"""	"""BLD-RES"""	"""Request entered through the Web. Refer to Intake Questions for further description."""	Cinc Building Dept	2021-01-09	2021-02-10	2022-01-09	"""2201 HARRISON AV, CINC - GJ0972734421"""	45211	39.1337327488272	-84.5735456215948	01/09/2021 12:00:00 AM	02/10/2021 12:00:00 AM	02/10/2021 12:00:00 AM
SR21001515	CLOS	"""Building, residential"""	"""BLD-RES"""	"""Doing work without permits. They are digging a deep hole in the back yard."""	Cinc Building Dept	2021-01-07	2021-02-10	2022-01-07	"""4220 ROSE HILL AV - GJ1699437719 """	45229	39.1616451918279	-84.4884944002054	01/07/2021 12:00:00 AM	02/10/2021 12:00:00 AM	02/10/2021 12:00:00 AM
SR21001096	OPEN	"""Building, residential"""	"""BLD-RES"""	"""Bathroom ceiling leaking and collapsed. Leak underneath the kitchen sink"""	Cinc Building Dept	2021-01-06	2021-02-10	2022-01-06	"""3183 FERNCREST CT - GJ0878335806 """	45211	39.1464251209369	-84.5840388757753	01/06/2021 12:00:00 AM	02/10/2021 12:00:00 AM	02/10/2021 12:00:00 AM
SR21010515	NEW	"""Building, residential"""	"""BLD-RES"""	"""No heat"""	Cinc Building Dept	2021-02-11	2021-02-11	2022-02-11	"""1816 LOSANTIVILLE AV - GJ1944541241 """	45237	39.192737810706	-84.4590162073	02/11/2021 12:00:00 AM	02/11/2021 12:00:00 AM	02/11/2021 12:00:00 AM
SR21009424	OPEN	"""Building, residential"""	"""BLD-RES"""	"""Hole in hallway Leak in bedroom. Ceiling fell in. put dry erase board in ceiling."""	Cinc Building Dept	2021-02-08	2021-02-11	2022-02-08	"""3019 BRACKEN WOODS LN - GJ0890635332 """	45211	39.1421278825807	-84.5827688222988	02/08/2021 12:00:00 AM	02/11/2021 12:00:00 AM	02/11/2021 12:00:00 AM
SR21008446	CLOS	"""Building, residential"""	"""BLD-RES"""	"""Plumbing issues. Whenever the neighbors their toilet it backs up into callers toilet & sink and will flood over and runs into the basement. Basement ceiling has a hole where the leaks have occurred."""	Cinc Building Dept	2021-02-03	2021-02-11	2022-02-03	"""4808 HAWAIIAN TER - GJ1072240034 """	45223	39.1840294308909	-84.5603110997076	02/03/2021 12:00:00 AM	02/11/2021 12:00:00 AM	02/11/2021 12:00:00 AM
SR21008053	CLOS	"""Building, residential"""	"""BLD-RES"""	"""No hot water"""	Cinc Building Dept	2021-02-02	2021-02-11	2022-02-02	"""3189 FERNCREST CT - GJ0887835793 """	45211	39.1462882977713	-84.5829414586676	02/02/2021 12:00:00 AM	02/11/2021 12:00:00 AM	02/11/2021 12:00:00 AM
SR21008012	CLOS	"""Building, residential"""	"""BLD-RES"""	"""Ceilings have holes & leaks and making it cold in the unit. Maintenance cut a hole into ceiling to look for the leak and did not repair the hole. Basement has mold issues. No hot water. Insufficient Heat."""	Cinc Building Dept	2021-02-02	2021-02-11	2022-02-02	"""108 RION LN - GJ1578937385 """	45217	39.1589346485716	-84.5025348848841	02/02/2021 12:00:00 AM	02/11/2021 12:00:00 AM	02/11/2021 12:00:00 AM
SR21007747	OPEN	"""Building, residential"""	"""BLD-RES"""	"""Building F. Basement apartment.No heat. Holes in walls. Eletrical issues, switches shock you when you use. Nails sticking out of the baseboard. Bathroom tiles are falling off. Outlets have no coverings. Kitchen sink pipe leaks causing water damage to flooring. Carpet is mildewed from the water damage. Holes in the windows.  """	Cinc Building Dept	2021-02-01	2021-02-11	2022-02-01	"""2400 HARRISON AV - GJ0926435157 """	45211	39.1404710787047	-84.5786781693714	02/01/2021 12:00:00 AM	02/11/2021 12:00:00 AM	02/11/2021 12:00:00 AM
SR21007787	CLOS	"""Building, residential"""	"""BLD-RES"""	"""Water gushes from a pipe that is located between 1845 and 1849 Sunnybrook Dr or 1849 and 1853 Sunnybrooke Dr (caller wasn't sure which address) onto the street & sidewalk and has frozen over causing slipping and sliding issues for the residents on the street."""	Cinc Building Dept	2021-02-01	2021-02-11	2022-02-01	"""1849 SUNNYBROOK DR - GJ1986142825 """	45237	39.2068912719241	-84.4536925032004	02/01/2021 12:00:00 AM	02/11/2021 12:00:00 AM	02/11/2021 12:00:00 AM
SR21007559	OPEN	"""Building, residential"""	"""BLD-RES"""	"""Request entered through the Web. Refer to Intake Questions for further description."""	Cinc Building Dept	2021-01-31	2021-02-11	2022-01-31	"""2992 WOODROW AV, CINC - GJ0866535270"""	45211	39.1416381283334	-84.5855686508094	01/31/2021 12:00:00 AM	02/11/2021 12:00:00 AM	02/11/2021 12:00:00 AM
SR21007560	OPEN	"""Building, residential"""	"""BLD-RES"""	"""Request entered through the Web. Refer to Intake Questions for further description."""	Cinc Building Dept	2021-01-31	2021-02-11	2022-01-31	"""2986 WOODROW AV, CINC - GJ0866735249"""	45211	39.1414489190233	-84.5855524578479	01/31/2021 12:00:00 AM	02/11/2021 12:00:00 AM	02/11/2021 12:00:00 AM
SR21004879	CLOS	"""Building, residential"""	"""BLD-RES"""	"""Inspect to update conditions & reissue B202005067 due to ownership change"""	Cinc Building Dept	2021-01-21	2021-02-11	2022-01-21	"""2986 WOODROW AV - GJ0866735250 """	45211	39.1414489190233	-84.5855524578479	01/21/2021 12:00:00 AM	02/11/2021 12:00:00 AM	02/11/2021 12:00:00 AM
SR21000260	CLOS	"""Bike rack, new"""	"""BKRCKRQS"""	"""Transfer: 01/04/2021 1:06 PM/SGOODWINREFER TO T & E - Request entered through the Web. Refer to Intake Questions for further description."""	Dept of Trans and Eng	2021-01-03	2021-02-11	2022-01-04	"""2621 SHORT VINE ST, CINC - """	45219	39.1299849877061	-84.5100284826258	01/03/2021 12:00:00 AM	02/11/2021 12:00:00 AM	02/11/2021 12:00:00 AM
SR21011229	NEW	"""Exit, blocked """	"""EXIT_B"""	"""Request entered through the Web. Refer to Intake Questions for further description."""	Fire Dept	2021-02-12	2021-02-12	2022-02-12	"""1803 SYCAMORE ST, CINC - GJ1522232769"""	45219	39.1175212348418	-84.5105536375386	02/12/2021 12:00:00 AM	02/12/2021 12:00:00 AM	02/12/2021 12:00:00 AM
SR21009341	OPEN	"""Building, residential"""	"""BLD-RES"""	"""NO HEAT"""	Cinc Building Dept	2021-02-08	2021-02-12	2022-02-08	"""1944 HIGHLAND AV - GJ1581932796 1"""	45219	39.1176132097533	-84.5036569303901	02/08/2021 12:00:00 AM	02/12/2021 12:00:00 AM	02/12/2021 12:00:00 AM
SR21008773	CLOS	"""Building, residential"""	"""BLD-RES"""	"""Request entered through the Web. Refer to Intake Questions for further description."""	Cinc Building Dept	2021-02-04	2021-02-12	2022-02-04	"""1130 DRAPER ST, CINC - GJ1306033826"""	45214	39.1275737285651	-84.5352090917387	02/04/2021 12:00:00 AM	02/12/2021 12:00:00 AM	02/12/2021 12:00:00 AM
SR21011400	NEW	"""Building, residential"""	"""BLD-RES"""	"""Request entered through the Web. Refer to Intake Questions for further description."""	Cinc Building Dept	2021-02-13	2021-02-13	2022-02-13	"""2214 PARK AV, CINC - GJ1730333180"""	45206	39.1207065252019	-84.4863708523644	02/13/2021 12:00:00 AM	02/13/2021 12:00:00 AM	02/13/2021 12:00:00 AM
SR21011560	NEW	"""Building, residential"""	"""BLD-RES"""	"""Request entered through the Web. Refer to Intake Questions for further description."""	Cinc Building Dept	2021-02-15	2021-02-15	2022-02-15	"""6335 IRIS AV, CINC - GJ2289140812"""	45213	39.188000187224	-84.4192717718245	02/15/2021 12:00:00 AM	02/15/2021 12:00:00 AM	02/15/2021 12:00:00 AM
SR21011904	NEW	"""Smoke detector, missing/damagd"""	"""SMOKEDET"""	"""Request entered through the Web. Refer to Intake Questions for further description."""	Fire Dept	2021-02-16	2021-02-16	2022-02-16	"""2455 WESTWOOD NORTHERN BLVD, CINC - """	45211	39.1450788266997	-84.5776434778255	02/16/2021 12:00:00 AM	02/16/2021 12:00:00 AM	02/16/2021 12:00:00 AM
SR21011846	NEW	"""Building, residential"""	"""BLD-RES"""	"""No heat for 16 days. """	Cinc Building Dept	2021-02-16	2021-02-16	2022-02-16	"""3501 SECTION RD - GJ2320641502 """	45237	39.1941275892442	-84.4154193741856	02/16/2021 12:00:00 AM	02/16/2021 12:00:00 AM	02/16/2021 12:00:00 AM
SR21012137	NEW	"""Exit, blocked """	"""EXIT_B"""	"""Request entered through the Web. Refer to Intake Questions for further description."""	Fire Dept	2021-02-16	2021-02-16	2022-02-16	"""3423 COLERAIN AV, CINC - GJ1271235813"""	45225	39.1455438291535	-84.5386072610619	02/16/2021 12:00:00 AM	02/16/2021 12:00:00 AM	02/16/2021 12:00:00 AM
SR21012109	NEW	"""Sign Shop,Internal New Request"""	"""SGNSHPNI"""	"""SR for DPS, recreation pick-up trucks, a recreation trailer & a MSD gator decals. Contact Doug Pierani."""	Public Services	2021-02-16	2021-02-16	2022-02-16	"""3300 COLERAIN AV - GJ1278335589 """	45225	39.1435054955578	-84.5378569044142	02/16/2021 12:00:00 AM	02/16/2021 12:00:00 AM	02/16/2021 12:00:00 AM
SR21012019	NEW	"""Exit, blocked """	"""EXIT_B"""	"""Request entered through the Web. Refer to Intake Questions for further description."""	Fire Dept	2021-02-16	2021-02-16	2022-02-16	"""207 KEMP AL, CINC - """	45202	39.1128591798487	-84.5198010201331	02/16/2021 12:00:00 AM	02/16/2021 12:00:00 AM	02/16/2021 12:00:00 AM
SR21012107	NEW	"""Sign Shop,Internal New Request"""	"""SGNSHPNI"""	"""SR for police motorcycle decals. Contact Doug Pierani."""	Public Services	2021-02-16	2021-02-16	2022-02-16	"""3300 COLERAIN AV - GJ1278335589 """	45225	39.1435054955578	-84.5378569044142	02/16/2021 12:00:00 AM	02/16/2021 12:00:00 AM	02/16/2021 12:00:00 AM
SR21010651	OPEN	"""Building, residential"""	"""BLD-RES"""	"""Water leak in bedroom.Top floor"""	Cinc Building Dept	2021-02-11	2021-02-17	2022-02-11	"""948 LUDLOW AV - GJ1304036573 """	45220	39.1522990395451	-84.5345881256554	02/11/2021 12:00:00 AM	02/17/2021 12:00:00 AM	02/17/2021 12:00:00 AM
SR21010911	OPEN	"""Building, residential"""	"""BLD-RES"""	"""Bathroom ceiling collapsed today. Upstairs unit has leaks. """	Cinc Building Dept	2021-02-11	2021-02-17	2022-02-11	"""3549 HARVEY AV - GJ1624836070 """	45229	39.1469818627342	-84.4976446652243	02/11/2021 12:00:00 AM	02/17/2021 12:00:00 AM	02/17/2021 12:00:00 AM
SR21009472	OPEN	"""Building, residential"""	"""BLD-RES"""	"""Inspect to update conditions & reissue B201502359 """	Cinc Building Dept	2021-02-08	2021-02-17	2022-02-08	"""1222 RUTLEDGE AV - GJ0858432212 """	45205	39.1141184646408	-84.587445991667	02/08/2021 12:00:00 AM	02/17/2021 12:00:00 AM	02/17/2021 12:00:00 AM
SR21007754	CLOS	"""Building, residential"""	"""BLD-RES"""	"""Request entered through the Web. Refer to Intake Questions for further description."""	Cinc Building Dept	2021-02-01	2021-02-17	2022-02-01	"""339 PROBASCO ST, CINC - GJ1418334596"""	45220	39.1342343091423	-84.5219877679925	02/01/2021 12:00:00 AM	02/17/2021 12:00:00 AM	02/17/2021 12:00:00 AM
SR21007306	OPEN	"""Building, residential"""	"""BLD-RES"""	"""Upstairs bathroom ceiling leaks every time it rains. Holes in the floors. Mice infestation. Lead issues. """	Cinc Building Dept	2021-01-29	2021-02-17	2022-01-29	"""744 WELLS ST - GJ1013931121 """	45205	39.1039242869437	-84.5698153506519	01/29/2021 12:00:00 AM	02/17/2021 12:00:00 AM	02/17/2021 12:00:00 AM
SR21013076	OPEN	"""Building, residential"""	"""BLD-RES"""	"""Basement apartment. Plumbing issues: Toilet constantly overflows causing flooding into the apartment. Walls have cracks and leaks. Roach & gnat infestation. """	Cinc Building Dept	2021-02-18	2021-02-18	2022-02-18	"""2315 ST JAMES AV - GJ1692733426 """	45206	39.1230114401621	-84.4906491915021	02/18/2021 12:00:00 AM	02/18/2021 12:00:00 AM	02/18/2021 12:00:00 AM
"""	Cinc Building Dept	2021-02-18	2021-02-18	2022-02-18	""2315 ST JAMES AV - GJ1692733426 """""	45206	39.1230114401621	-84.4906491915021	02/18/2021 12:00:00 AM	02/18/2021 12:00:00 AM	02/18/2021 12:00:00 AM									
SR21013234	NEW	"""Exit, blocked """	"""EXIT_B"""	"""Request entered through the Web. Refer to Intake Questions for further description."""	Fire Dept	2021-02-18	2021-02-18	2022-02-18	"""2005 S TERALTA CIR, CINC - GJ1016934725"""	45211	39.1363633252482	-84.5683440865365	02/18/2021 12:00:00 AM	02/18/2021 12:00:00 AM	02/18/2021 12:00:00 AM
SR21012770	CLOS	"""Building, residential"""	"""BLD-RES"""	"""Basement apartment. No heat for entire building. Boiler has been out for 4 days."""	Cinc Building Dept	2021-02-17	2021-02-18	2022-02-17	"""761 KINGS RUN DR - GJ1431939817 """	45232	39.1811896240361	-84.5187658017662	02/17/2021 12:00:00 AM	02/18/2021 12:00:00 AM	02/18/2021 12:00:00 AM
SR21010262	OPEN	"""Building, residential"""	"""BLD-RES"""	"""Shower has no hot water. Bathroom pipe under the sink leaks and floods onto the flooring causing water damage to the flooring & carpets. Heater is leaking water. """	Cinc Building Dept	2021-02-10	2021-02-18	2022-02-10	"""2626 HARRISON AV - GJ0847335293 """	45211	39.1418866295483	-84.5877837699736	02/10/2021 12:00:00 AM	02/18/2021 12:00:00 AM	02/18/2021 12:00:00 AM
SR21009359	OPEN	"""Building, residential"""	"""BLD-RES"""	"""Request entered through the Web. Refer to Intake Questions for further description."""	Cinc Building Dept	2021-02-08	2021-02-18	2022-02-08	"""810 N FRED SHUTTLESWORTH CIR, CINC - GJ1728436828"""	45229	39.1535605564729	-84.4854192101564	02/08/2021 12:00:00 AM	02/18/2021 12:00:00 AM	02/18/2021 12:00:00 AM
SR21008287	OPEN	"""Building, residential"""	"""BLD-RES"""	"""No Storm Door. Air coming in through back door."""	Cinc Building Dept	2021-02-03	2021-02-18	2022-02-02	"""2305 MILLVALE CT - GJ1128736224 """	45225	39.149588845273	-84.5549633510351	02/03/2021 12:00:00 AM	02/18/2021 12:00:00 AM	02/18/2021 12:00:00 AM
SR21006810	OPEN	"""Building, residential"""	"""BLD-RES"""	"""Reissue of B201907124 to new owner"""	Cinc Building Dept	2021-01-28	2021-02-18	2022-01-28	"""3628 IDLEWILD AV - GJ1843036012 """	45207	39.1459165874821	-84.4724431540886	01/28/2021 12:00:00 AM	02/18/2021 12:00:00 AM	02/18/2021 12:00:00 AM
SR21007143	CLOS	"""Building, residential"""	"""BLD-RES"""	"""Request entered through the Web. Refer to Intake Questions for further description."""	Cinc Building Dept	2021-01-28	2021-02-18	2022-01-28	"""1927 KINNEY AV, CINC - GJ1891634898"""	45207	39.135773402366	-84.467172362052	01/28/2021 12:00:00 AM	02/18/2021 12:00:00 AM	02/18/2021 12:00:00 AM
SR21006310	CLOS	"""Building, residential"""	"""BLD-RES"""	"""No heat for 3 days. """	Cinc Building Dept	2021-01-26	2021-02-18	2022-01-26	"""1820 SUNSET AV - GJ0904433207 """	45205	39.122964033673	-84.5818275175715	01/26/2021 12:00:00 AM	02/18/2021 12:00:00 AM	02/18/2021 12:00:00 AM
SR21005326	OPEN	"""Building, residential"""	"""BLD-RES"""	"""Request entered through the Web. Refer to Intake Questions for further description."""	Cinc Building Dept	2021-01-22	2021-02-18	2022-01-22	"""2420 MAY ST, CINC - GJ1653733700"""	45206	39.1255830218522	-84.4950623111683	01/22/2021 12:00:00 AM	02/18/2021 12:00:00 AM	02/18/2021 12:00:00 AM
SR21003524	OPEN	"""Building, residential"""	"""BLD-RES"""	"""Request entered through the Web. Refer to Intake Questions for further description."""	Cinc Building Dept	2021-01-14	2021-02-18	2022-01-14	"""1056 DELHI AV, CINC - GJ0932330322"""	45204	39.0969263066399	-84.5794886018214	01/14/2021 12:00:00 AM	02/18/2021 12:00:00 AM	02/18/2021 12:00:00 AM
SR21013728	NEW	"""Building, residential"""	"""BLD-RES"""	"""CO call out by CFD. """	Cinc Building Dept	2021-02-19	2021-02-19	2022-02-19	"""5727 KIPLINGWOOD DR - GJ0961641782 """	45239	39.2000284621928	-84.5725623283174	02/19/2021 12:00:00 AM	02/19/2021 12:00:00 AM	02/19/2021 12:00:00 AM
SR21013641	NEW	"""Building, residential"""	"""BLD-RES"""	"""Electrical final required for work associated with permit 2019P03554"""	Cinc Building Dept	2021-02-19	2021-02-19	2022-02-19	"""6481 LOISWOOD DR - GJ1208242773 """	45224	39.2083533837929	-84.5437202451752	02/19/2021 12:00:00 AM	02/19/2021 12:00:00 AM	02/19/2021 12:00:00 AM
SR21012165	OPEN	"""Building, residential"""	"""BLD-RES"""	"""Request entered through the Web. Refer to Intake Questions for further description."""	Cinc Building Dept	2021-02-16	2021-02-19	2022-02-16	"""2830 HARRISON AV, CINC - GJ0801835465"""	45211	39.1435477128822	-84.5929893386455	02/16/2021 12:00:00 AM	02/19/2021 12:00:00 AM	02/19/2021 12:00:00 AM
SR21011719	CLOS	"""Building, residential"""	"""BLD-RES"""	"""Request entered through the Web. Refer to Intake Questions for further description."""	Cinc Building Dept	2021-02-16	2021-02-19	2022-02-16	"""644 PROBASCO ST, CINC - GJ1362534660"""	45220	39.1349404278708	-84.5284154521097	02/16/2021 12:00:00 AM	02/19/2021 12:00:00 AM	02/19/2021 12:00:00 AM
SR21011278	OPEN	"""Building, residential"""	"""BLD-RES"""	"""Kitchen Ceiling caved in, it hat been leaking for some time."""	Cinc Building Dept	2021-02-12	2021-02-19	2022-02-12	"""2535 BURNET AV - GJ1591933980 """	45219	39.128246059576	-84.5021228537485	02/12/2021 12:00:00 AM	02/19/2021 12:00:00 AM	02/19/2021 12:00:00 AM
"Reported as 1554 Winchell Ave."""""	Cinc Building Dept	2021-02-22	2021-02-22	2022-02-22	"""858 WADE WALK - GJ1362432187 """	45214	39.112678362617	-84.5292082013477	02/22/2021 12:00:00 AM	02/22/2021 12:00:00 AM	02/22/2021 12:00:00 AM				
SR21012792	CLOS	"""Building, residential"""	"""BLD-RES"""	"""No Heat"""	Cinc Building Dept	2021-02-17	2021-02-22	2022-02-17	"""116 LYON ST - GJ1472433811 """	45219	39.1270252498407	-84.5159908741635	02/17/2021 12:00:00 AM	02/22/2021 12:00:00 AM	02/22/2021 12:00:00 AM
SR21012710	OPEN	"""Building, residential"""	"""BLD-RES"""	"""Inspect to update conditions & reissue B202002836 due to ownership change."""	Cinc Building Dept	2021-02-17	2021-02-22	2022-02-17	"""815 OVERLOOK AV - GJ0752031711 """	45238	39.1098618574863	-84.5998938898623	02/17/2021 12:00:00 AM	02/22/2021 12:00:00 AM	02/22/2021 12:00:00 AM
SR21009503	OPEN	"""Building, residential"""	"""BLD-RES"""	"""No heat for 5 days for entire building."""	Cinc Building Dept	2021-02-08	2021-02-22	2022-02-08	"""2231 WESTWOOD NORTHERN BLVD - GJ1023435756 """	45225	39.1456266615014	-84.5672763921862	02/08/2021 12:00:00 AM	02/22/2021 12:00:00 AM	02/22/2021 12:00:00 AM
SR21009007	OPEN	"""Building, residential"""	"""BLD-RES"""	"""Request entered through the Web. Refer to Intake Questions for further description."""	Cinc Building Dept	2021-02-05	2021-02-22	2022-02-05	"""2717 ARBOR AV, CINC - GJ2108036251"""	45209	39.1474019382082	-84.4417160093436	02/05/2021 12:00:00 AM	02/22/2021 12:00:00 AM	02/22/2021 12:00:00 AM
SR21008774	CLOS	"""Building, residential"""	"""BLD-RES"""	"""Request entered through the Web. Refer to Intake Questions for further description."""	Cinc Building Dept	2021-02-04	2021-02-22	2022-02-04	"""3506 LINWOOD AV, CINC - GJ2293833904"""	45226	39.1258041256939	-84.4210084337368	02/04/2021 12:00:00 AM	02/22/2021 12:00:00 AM	02/22/2021 12:00:00 AM
SR21007254	OPEN	"""Building, residential"""	"""BLD-RES"""	"""Basement wall in the washer room is missing you can see the pipes and wires. Rat infestation. Mold issues. """	Cinc Building Dept	2021-01-29	2021-02-22	2022-01-29	"""4343 EASTERN AV - GJ2262932164 """	45226	39.1102132844857	-84.4251581160704	01/29/2021 12:00:00 AM	02/22/2021 12:00:00 AM	02/22/2021 12:00:00 AM
SR21004218	OPEN	"""Building, residential"""	"""BLD-RES"""	"""There is currently loose wiring in this home which is causing the light switch in the child's bedroom to spark sporadically when someone walks by. The sparking is so severe it has nearly caused a fire"""	Cinc Building Dept	2021-01-19	2021-02-22	2022-01-19	"""2492 NOTTINGHAM RD - GJ1070437137 """	45225	39.1579495838328	-84.5614162427753	01/19/2021 12:00:00 AM	02/22/2021 12:00:00 AM	02/22/2021 12:00:00 AM
SR21014539	OPEN	"""Building, residential"""	"""BLD-RES"""	"""The Cincinnati Fire Department was called when the carbon monoxide detector was activated. Inspector Wright noted CO was present Repair or replace Furnace and stove. Inspector Wright noted owner plans to replace. Permit is required."""	Cinc Building Dept	2021-02-22	2021-02-23	2022-02-22	"""2308 KENTON ST - GJ1661733391 """	45206	39.1227712255991	-84.4942386177556	02/22/2021 12:00:00 AM	02/23/2021 12:00:00 AM	02/23/2021 12:00:00 AM
SR21013583	CLOS	"""Building, residential"""	"""BLD-RES"""	"""Issues with 2019P05739. Outstanding fees preventing CO being issued."""	Cinc Building Dept	2021-02-19	2021-02-23	2022-02-19	"""4132 MAD ANTHONY ST - GJ1296937552 """	45223	39.1611279019174	-84.535094160516	02/19/2021 12:00:00 AM	02/23/2021 12:00:00 AM	02/23/2021 12:00:00 AM
SR21012643	OPEN	"""Building, residential"""	"""BLD-RES"""	"""Basement apartment. No ventilation in the apartment. Cracks are in the doors. Ceiling over the stove leaks. Outside-parking lot & common areas have not been shoveled. """	Cinc Building Dept	2021-02-17	2021-02-23	2022-02-17	"""918 LUDLOW AV - GJ1311736435 """	45220	39.1510424125681	-84.5337369799074	02/17/2021 12:00:00 AM	02/23/2021 12:00:00 AM	02/23/2021 12:00:00 AM
SR21011393	OPEN	"""Building, residential"""	"""BLD-RES"""	"""Request entered through the Web. Refer to Intake Questions for further description."""	Cinc Building Dept	2021-02-13	2021-02-23	2022-02-13	"""1822 FAIRFAX AV, CINC - GJ1855234863"""	45207	39.1355478927163	-84.4713941253125	02/13/2021 12:00:00 AM	02/23/2021 12:00:00 AM	02/23/2021 12:00:00 AM
SR21009462	OPEN	"""Building, residential"""	"""BLD-RES"""	"""Re-issue of  B202002253 To new owner"""	Cinc Building Dept	2021-02-08	2021-02-23	2022-02-08	"""1848 FAIRFAX AV - GJ1866334858 """	45207	39.1354652135533	-84.4701188022805	02/08/2021 12:00:00 AM	02/23/2021 12:00:00 AM	02/23/2021 12:00:00 AM
SR21008401	OPEN	"""Building, residential"""	"""BLD-RES"""	"""Foundation is slippingl front door lock is stricking, kitchen cabinets not property installed, floor in upstair bathroom floor is weak. steps have holes.laminate floors coming apart. Kitchen counter is loose."""	Cinc Building Dept	2021-02-03	2021-02-23	2022-02-03	"""117 GAGE ST - GJ1499233052 """	45219	39.120126708689	-84.5131312966035	02/03/2021 12:00:00 AM	02/23/2021 12:00:00 AM	02/23/2021 12:00:00 AM
SR21007948	OPEN	"""Building, residential"""	"""BLD-RES"""	"""Request entered through the Web. Refer to Intake Questions for further description."""	Cinc Building Dept	2021-02-02	2021-02-23	2022-02-02	"""7751 STILLWELL RD, CINC - GJ1957742438"""	45237	39.2034837642571	-84.4570780452898	02/02/2021 12:00:00 AM	02/23/2021 12:00:00 AM	02/23/2021 12:00:00 AM
SR21007274	OPEN	"""Building, residential"""	"""BLD-RES"""	"""No hot water. """	Cinc Building Dept	2021-01-29	2021-02-23	2022-01-29	"""580 WILKINSON ST - GJ1624433470 """	45206	39.1235762371113	-84.4985240841829	01/29/2021 12:00:00 AM	02/23/2021 12:00:00 AM	02/23/2021 12:00:00 AM
SR21006855	OPEN	"""Building, residential"""	"""BLD-RES"""	"""Circuit breaker constantly trip. Outlets are not safe to use, outlet in second bedroom caught fire. Leaks in bathroom ceiling.  Cracks in the walls. Bedrooms have leaks. Plumbing issues throughout the building, caller was told by those coming in to fix plumbing that pipes need to be replaced. """	Cinc Building Dept	2021-01-28	2021-02-23	2022-01-28	"""697 GREENWOOD AV - GJ1692736742 """	45229	39.1528629715606	-84.4895863133828	01/28/2021 12:00:00 AM	02/23/2021 12:00:00 AM	02/23/2021 12:00:00 AM
SR21005328	OPEN	"""Building, residential"""	"""BLD-RES"""	"""Request entered through the Web. Refer to Intake Questions for further description."""	Cinc Building Dept	2021-01-22	2021-02-23	2022-01-22	"""2421 MAY ST, CINC - GJ1651433702"""	45206	39.1256059827192	-84.4953238759205	01/22/2021 12:00:00 AM	02/23/2021 12:00:00 AM	02/23/2021 12:00:00 AM
SR21014546	CLOS	"""Building, residential"""	"""BLD-RES"""	"""Reggie Binford was called to investagate basement water heater. Upon inspection, the vent connector needed correction. Owner stated he would make corrections."""	Cinc Building Dept	2021-02-22	2021-02-24	2022-02-22	"""3931 VINE VISTA PL - GJ1566437408 """	45217	39.1591707536284	-84.5039702678647	02/22/2021 12:00:00 AM	02/24/2021 12:00:00 AM	02/24/2021 12:00:00 AM
SR21014101	OPEN	"""Building, residential"""	"""BLD-RES"""	"""Request entered through the Web. Refer to Intake Questions for further description."""	Cinc Building Dept	2021-02-20	2021-02-24	2022-02-20	"""3901 DICKSON AV, CINC - GJ1656037174"""	45229	39.1568488835212	-84.4936851188367	02/20/2021 12:00:00 AM	02/24/2021 12:00:00 AM	02/24/2021 12:00:00 AM
SR21013026	OPEN	"""Building, residential"""	"""BLD-RES"""	"""Reissue of CC20180921 to new ownership"""	Cinc Building Dept	2021-02-18	2021-02-24	2022-02-18	"""517 RIDGEWAY AV - GJ1627535090 """	45229	39.1381523150712	-84.4976512336473	02/18/2021 12:00:00 AM	02/24/2021 12:00:00 AM	02/24/2021 12:00:00 AM
SR21013160	CLOS	"""Building, residential"""	"""BLD-RES"""	"""No hot water for 2 days. Driveway has not been shoveled, residents are not able to get out. Common front door entrance is not secured. Roach & bed bug infestation."""	Cinc Building Dept	2021-02-18	2021-02-24	2022-02-18	"""538 ROCKDALE AV - GJ1640935867 """	45229	39.1451150108367	-84.4958528889752	02/18/2021 12:00:00 AM	02/24/2021 12:00:00 AM	02/24/2021 12:00:00 AM
SR21003845	OPEN	"""Building, residential"""	"""BLD-RES"""	"""Inspections and approvals required for open electric and plumbing permits."""	Cinc Building Dept	2021-01-15	2021-02-24	2022-01-15	"""2111 FULTON AV - GJ1680432937 """	45206	39.1186396198764	-84.4922282672672	01/15/2021 12:00:00 AM	02/24/2021 12:00:00 AM	02/24/2021 12:00:00 AM
SR21015727	NEW	"""Sign Shop,Internal New Request"""	"""SGNSHPNI"""	"""SR for police Harley Davidson decals. Contact Doug """	Public Services	2021-02-25	2021-02-25	2022-02-25	"""3300 COLERAIN AV - GJ1278335589 """	45225	39.1435054955578	-84.5378569044142	02/25/2021 12:00:00 AM	02/25/2021 12:00:00 AM	02/25/2021 12:00:00 AM
SR21015453	NEW	"""Building, residential"""	"""BLD-RES"""	"""Reissue of B202003021 to new ownership"""	Cinc Building Dept	2021-02-25	2021-02-25	2022-02-25	"""3612 WARSAW AV - GJ1001231869 """	45205	39.1106884010507	-84.5710578515138	02/25/2021 12:00:00 AM	02/25/2021 12:00:00 AM	02/25/2021 12:00:00 AM
SR21015420	OPEN	"""Building, residential"""	"""BLD-RES"""	"""Request entered through the Web. Refer to Intake Questions for further description."""	Cinc Building Dept	2021-02-25	2021-02-25	2022-02-25	"""2134 GILBERT AV, CINC - GJ1656833015"""	45206	39.1194034471814	-84.4949222666328	02/25/2021 12:00:00 AM	02/25/2021 12:00:00 AM	02/25/2021 12:00:00 AM
SR21014301	CLOS	"""Building, residential"""	"""BLD-RES"""	"""Bathtub caulking has cracks, needs new caulking. Windows and doors are not weather tight, allowing a lot of cold air into the building. Poor hot water quality, the hot water is very cloudy, tenant is boiling water due to the water quality."""	Cinc Building Dept	2021-02-22	2021-02-25	2022-02-22	"""747 HOPKINS ST - GJ1384631718 """	45203	39.1083979839161	-84.5267864032212	02/22/2021 12:00:00 AM	02/25/2021 12:00:00 AM	02/25/2021 12:00:00 AM
SR21014248	OPEN	"""Building, residential"""	"""BLD-RES"""	"""Exterior painting required on dormer and small section of front porch trim."""	Cinc Building Dept	2021-02-22	2021-02-25	2022-02-22	"""1006 SCHIFF AV - GJ0836431855 """	45205	39.1109562465258	-84.5900982772477	02/22/2021 12:00:00 AM	02/25/2021 12:00:00 AM	02/25/2021 12:00:00 AM
SR21012677	OPEN	"""Building, residential"""	"""BLD-RES"""	"""Inspect to update conditions and reissue B202003168 due to ownership change."""	Cinc Building Dept	2021-02-17	2021-02-25	2022-02-17	"""806 PEDRETTI AV - GJ0764031683 """	45238	39.1095819990168	-84.5985142533933	02/17/2021 12:00:00 AM	02/25/2021 12:00:00 AM	02/25/2021 12:00:00 AM
SR21009323	CLOS	"""Building, residential"""	"""BLD-RES"""	"""No hot water"""	Cinc Building Dept	2021-02-08	2021-02-25	2022-02-08	"""2654 FENTON AV - GJ0943634657 """	45211	39.1359256708774	-84.5768475684581	02/08/2021 12:00:00 AM	02/25/2021 12:00:00 AM	02/25/2021 12:00:00 AM
SR21006456	OPEN	"""Building, residential"""	"""BLD-RES"""	"""Tiny House between 522 and 526 Enright Ave and is being inhabited by 1 adult & 2 children. Electricity being runned from the garage to the tiny house. Caller is concerned that there is no electricity & water and that it's not good for the people living in the tiny home. Per caller the actual house is currently being rehabbed and is not habitable."""	Cinc Building Dept	2021-01-27	2021-02-25	2022-01-27	"""526 ENRIGHT AV - GJ0974830558 """	45205	39.0989464273981	-84.574501100318	01/27/2021 12:00:00 AM	02/25/2021 12:00:00 AM	02/25/2021 12:00:00 AM
SR21006049	OPEN	"""Building, residential"""	"""BLD-RES"""	"""Request entered through the Web. Refer to Intake Questions for further description."""	Cinc Building Dept	2021-01-25	2021-02-25	2022-01-25	"""2142 SELIM AV, CINC - GJ1167933109"""	45214	39.1214468268706	-84.5513980328434	01/25/2021 12:00:00 AM	02/25/2021 12:00:00 AM	02/25/2021 12:00:00 AM
SR21014784	OPEN	"""Building, residential"""	"""BLD-RES"""	"""No hot water since the end of January. Maintenance was suppose to fix it on 2-9 but it did not happen."""	Cinc Building Dept	2021-02-23	2021-02-26	2022-02-23	"""2958 HIGHFOREST LN - GJ1075139502 """	45223	39.1792319248671	-84.5601351467387	02/23/2021 12:00:00 AM	02/26/2021 12:00:00 AM	02/26/2021 12:00:00 AM
SR21014745	CLOS	"""Building, residential"""	"""BLD-RES"""	"""Windows leak every time it rains & snow melts. Mold & mildew around the windows due to the leaks. """	Cinc Building Dept	2021-02-23	2021-02-26	2022-02-23	"""5104 HAWAIIAN TER - GJ1031940023 """	45223	39.184026253648	-84.5649690837384	02/23/2021 12:00:00 AM	02/26/2021 12:00:00 AM	02/26/2021 12:00:00 AM
SR21014313	CLOS	"""Building, residential"""	"""BLD-RES"""	"""Request entered through the Web. Refer to Intake Questions for further description."""	Cinc Building Dept	2021-02-22	2021-02-26	2022-02-22	"""115 MERIDIAN ST, CINC - GJ0001431192"""	45233	39.1069526806683	-84.6867947953555	02/22/2021 12:00:00 AM	02/26/2021 12:00:00 AM	02/26/2021 12:00:00 AM
SR21012722	OPEN	"""Building, residential"""	"""BLD-RES"""	"""Inspect to update conditions & reissue B201805991."""	Cinc Building Dept	2021-02-17	2021-02-26	2022-02-17	"""204 ROCKAWAY AV - GJ0007531603 """	45233	39.1106264455183	-84.6859748175736	02/17/2021 12:00:00 AM	02/26/2021 12:00:00 AM	02/26/2021 12:00:00 AM
SR21016323	OPEN	"""Building, residential"""	"""BLD-RES"""	"""Request entered through the Web. Refer to Intake Questions for further description."""	Cinc Building Dept	2021-02-28	2021-03-01	2022-02-28	"""3027 EPWORTH CT, CINC - GJ0731634849"""	45238	39.1381711806264	-84.6012895434987	02/28/2021 12:00:00 AM	03/01/2021 12:00:00 AM	03/01/2021 12:00:00 AM
SR21016008	OPEN	"""Building, residential"""	"""BLD-RES"""	"""Roof leaks. Ceilings have cracks & leaks. Walls have cracks, are very soft, and bows when touch. Upstairs office closet ceiling leaks causing water damage to the walls. Floors are warped. Windows and doors are not weather tight and there is space that bugs can get into the buidling.  Mold issue due to water damage."""	Cinc Building Dept	2021-02-26	2021-03-01	2022-02-26	"""1434 YARMOUTH AV - GJ1832139120 """	45237	39.1739190811349	-84.4726963546488	02/26/2021 12:00:00 AM	03/01/2021 12:00:00 AM	03/01/2021 12:00:00 AM
SR21015099	OPEN	"""Building, residential"""	"""BLD-RES"""	"""Bedroom ceiling looks like its about to collapsed, it has cracks, bulging, leaks and the paint is peeling. Mold/Mildew smell in the bedroom due to the leaking ceiling. Tenant not able to use the bedroom due to the leaking."""	Cinc Building Dept	2021-02-24	2021-03-01	2022-02-24	"""2888 HARRISON AV - GJ0793435666 """	45211	39.1453685303476	-84.593904119189	02/24/2021 12:00:00 AM	03/01/2021 12:00:00 AM	03/01/2021 12:00:00 AM
SR21014579	OPEN	"""Building, residential"""	"""BLD-RES"""	"""Reissue of B201907752 to new ownership. """	Cinc Building Dept	2021-02-22	2021-03-01	2022-02-22	"""533 RIDGEWAY AV - GJ1633635088 """	45229	39.1381205405801	-84.4969450337979	02/22/2021 12:00:00 AM	03/01/2021 12:00:00 AM	03/01/2021 12:00:00 AM
SR21014343	OPEN	"""Building, residential"""	"""BLD-RES"""	"""Reissue of B201806726 to new ownership."""	Cinc Building Dept	2021-02-22	2021-03-01	2022-02-22	"""974 BURTON AV - GJ1755536434 """	45229	39.1499345401931	-84.4824210797472	02/22/2021 12:00:00 AM	03/01/2021 12:00:00 AM	03/01/2021 12:00:00 AM
SR21013866	OPEN	"""Building, residential"""	"""BLD-RES"""	"""No lights in kitchen or in bedroom."""	Cinc Building Dept	2021-02-19	2021-03-01	2022-02-19	"""922 FAIRBANKS AV - GJ1025831591 """	45205	39.1081232308853	-84.568292713505	02/19/2021 12:00:00 AM	03/01/2021 12:00:00 AM	03/01/2021 12:00:00 AM
SR21017011	NEW	"""Building, residential"""	"""BLD-RES"""	"""Retaining wall in rear of house is failing Wood lagging has rotted and is bowing in some areas. Owner to repair wall """	Cinc Building Dept	2021-03-02	2021-03-02	2022-03-02	"""948 MONASTERY ST - GJ1600131618 """	45202	39.106968174319	-84.5019225874299	03/02/2021 12:00:00 AM	03/02/2021 12:00:00 AM	03/02/2021 12:00:00 AM
SR21012655	OPEN	"""Building, residential"""	"""BLD-RES"""	"""Request entered through the Web. Refer to Intake Questions for further description."""	Cinc Building Dept	2021-02-17	2021-03-02	2022-02-17	"""3418 READING RD, CINC - GJ1674235506"""	45229	39.1417820925982	-84.4921152281006	02/17/2021 12:00:00 AM	03/02/2021 12:00:00 AM	03/02/2021 12:00:00 AM
SR21005017	OPEN	"""Sign Shop,Internal New Request"""	"""SGNSHPNI"""	"""SR# for flat sheet signs to be manufactured for the Wasson Way Ph 3 PID 112893 contract (CT 233 201C009075). Please let Brian Goubeaux or Mike Mann (cell 608-3417) know when the signs are ready and we will have the contractor pick them up for installation."""	Public Services	2021-01-21	2021-03-02	2022-01-21	"""3300 COLERAIN AV - GJ1278335589 """	45225	39.1435054955578	-84.5378569044142	01/21/2021 12:00:00 AM	03/02/2021 12:00:00 AM	03/02/2021 12:00:00 AM
SR21003751	OPEN	"""Sign Shop,Internal New Request"""	"""SGNSHPNI"""	"""Body Shop Decals. Contact Dave Hadsell."""	Public Services	2021-01-15	2021-03-02	2022-01-15	"""3300 COLERAIN AV - GJ1278335589 """	45225	39.1435054955578	-84.5378569044142	01/15/2021 12:00:00 AM	03/02/2021 12:00:00 AM	03/02/2021 12:00:00 AM
"Contact Doug Pierani."""""	Public Services	2021-01-07	2021-03-02	2022-01-07	"""3300 COLERAIN AV - GJ1278335589 """	45225	39.1435054955578	-84.5378569044142	01/07/2021 12:00:00 AM	03/02/2021 12:00:00 AM	03/02/2021 12:00:00 AM				
SR21017388	NEW	"""Building, residential"""	"""BLD-RES"""	"""portable toilet on property for mone than a month"""	Cinc Building Dept	2021-03-03	2021-03-03	2022-03-03	"""5333 INDIAN MOUND AV - GJ2116338932 """	45212	39.171509017733	-84.4398982834203	03/03/2021 12:00:00 AM	03/03/2021 12:00:00 AM	03/03/2021 12:00:00 AM
SR21017254	OPEN	"""Building, residential"""	"""BLD-RES"""	"""Request entered through the Web. Refer to Intake Questions for further description."""	Cinc Building Dept	2021-03-02	2021-03-03	2022-03-02	"""2853 COLERAIN AV, CINC - GJ1293434538"""	45225	39.1340115486485	-84.5364392212605	03/02/2021 12:00:00 AM	03/03/2021 12:00:00 AM	03/03/2021 12:00:00 AM
SR21016837	OPEN	"""Building, residential"""	"""BLD-RES"""	"""Request entered through the Web. Refer to Intake Questions for further description."""	Cinc Building Dept	2021-03-01	2021-03-03	2022-03-01	"""2855 COLERAIN AV, CINC - GJ1293234544"""	45225	39.134066200122	-84.5364549093548	03/01/2021 12:00:00 AM	03/03/2021 12:00:00 AM	03/03/2021 12:00:00 AM
SR21016435	OPEN	"""Building, residential"""	"""BLD-RES"""	"""Multiple Violationa"""	Cinc Building Dept	2021-03-01	2021-03-03	2022-03-01	"""1121 GRAND AV - GJ1091132254 """	45204	39.1139380030681	-84.5605458123385	03/01/2021 12:00:00 AM	03/03/2021 12:00:00 AM	03/03/2021 12:00:00 AM
SR21016030	CLOS	"""Building, residential"""	"""BLD-RES"""	"""Request entered through the Web. Refer to Intake Questions for further description."""	Cinc Building Dept	2021-02-26	2021-03-03	2022-02-26	"""2932 FISCHER PL, CINC - GJ0783935691"""	45211	39.1456235358267	-84.5949909604376	02/26/2021 12:00:00 AM	03/03/2021 12:00:00 AM	03/03/2021 12:00:00 AM
SR21015409	OPEN	"""Building, residential"""	"""BLD-RES"""	"""Multiple violations in multiple apartments."""	Cinc Building Dept	2021-02-25	2021-03-03	2022-02-25	"""710 CHALFONTE PL - GJ1691536466 """	45229	39.1503847200375	-84.4898089219491	02/25/2021 12:00:00 AM	03/03/2021 12:00:00 AM	03/03/2021 12:00:00 AM
SR21015404	OPEN	"""Building, residential"""	"""BLD-RES"""	"""Multiple violations in multiple apartments."""	Cinc Building Dept	2021-02-25	2021-03-03	2022-02-25	"""710 CHALFONTE PL - GJ1691536466 """	45229	39.1503847200375	-84.4898089219491	02/25/2021 12:00:00 AM	03/03/2021 12:00:00 AM	03/03/2021 12:00:00 AM
SR21015417	CLOS	"""Building, residential"""	"""BLD-RES"""	"""Multiple violations in multiple apartments."""	Cinc Building Dept	2021-02-25	2021-03-03	2022-02-25	"""710 CHALFONTE PL - GJ1691536466 """	45229	39.1503847200375	-84.4898089219491	02/25/2021 12:00:00 AM	03/03/2021 12:00:00 AM	03/03/2021 12:00:00 AM
SR21015408	OPEN	"""Building, residential"""	"""BLD-RES"""	"""Multiple violations in multiple apartments."""	Cinc Building Dept	2021-02-25	2021-03-03	2022-02-25	"""710 CHALFONTE PL - GJ1691536466 """	45229	39.1503847200375	-84.4898089219491	02/25/2021 12:00:00 AM	03/03/2021 12:00:00 AM	03/03/2021 12:00:00 AM
SR21015415	CLOS	"""Building, residential"""	"""BLD-RES"""	"""Multiple violations in multiple apartments."""	Cinc Building Dept	2021-02-25	2021-03-03	2022-02-25	"""710 CHALFONTE PL - GJ1691536466 """	45229	39.1503847200375	-84.4898089219491	02/25/2021 12:00:00 AM	03/03/2021 12:00:00 AM	03/03/2021 12:00:00 AM
SR21015414	OPEN	"""Building, residential"""	"""BLD-RES"""	"""Multiple violations in multiple apartments."""	Cinc Building Dept	2021-02-25	2021-03-03	2022-02-25	"""710 CHALFONTE PL - GJ1691536466 """	45229	39.1503847200375	-84.4898089219491	02/25/2021 12:00:00 AM	03/03/2021 12:00:00 AM	03/03/2021 12:00:00 AM
SR21015403	OPEN	"""Building, residential"""	"""BLD-RES"""	"""Multiple violations in multiple apartments."""	Cinc Building Dept	2021-02-25	2021-03-03	2022-02-25	"""710 CHALFONTE PL - GJ1691536466 """	45229	39.1503847200375	-84.4898089219491	02/25/2021 12:00:00 AM	03/03/2021 12:00:00 AM	03/03/2021 12:00:00 AM
SR21015407	OPEN	"""Building, residential"""	"""BLD-RES"""	"""Multiple violations in multiple apartments."""	Cinc Building Dept	2021-02-25	2021-03-03	2022-02-25	"""710 CHALFONTE PL - GJ1691536466 """	45229	39.1503847200375	-84.4898089219491	02/25/2021 12:00:00 AM	03/03/2021 12:00:00 AM	03/03/2021 12:00:00 AM
SR21015412	OPEN	"""Building, residential"""	"""BLD-RES"""	"""Multiple violations in multiple apartments."""	Cinc Building Dept	2021-02-25	2021-03-03	2022-02-25	"""710 CHALFONTE PL - GJ1691536466 """	45229	39.1503847200375	-84.4898089219491	02/25/2021 12:00:00 AM	03/03/2021 12:00:00 AM	03/03/2021 12:00:00 AM
SR21015411	OPEN	"""Building, residential"""	"""BLD-RES"""	"""Multiple violations in multiple apartments."""	Cinc Building Dept	2021-02-25	2021-03-03	2022-02-25	"""710 CHALFONTE PL - GJ1691536466 """	45229	39.1503847200375	-84.4898089219491	02/25/2021 12:00:00 AM	03/03/2021 12:00:00 AM	03/03/2021 12:00:00 AM
SR21015410	OPEN	"""Building, residential"""	"""BLD-RES"""	"""Multiple violations in multiple apartments."""	Cinc Building Dept	2021-02-25	2021-03-03	2022-02-25	"""710 CHALFONTE PL - GJ1691536466 """	45229	39.1503847200375	-84.4898089219491	02/25/2021 12:00:00 AM	03/03/2021 12:00:00 AM	03/03/2021 12:00:00 AM
